customer_id,customer_name,customer_gender,customer_birthdate,kids_home,teens_home,number_complaints,distinct_stores_visited,lifetime_spend_groceries,lifetime_spend_electronics,typical_hour,lifetime_spend_vegetables,lifetime_spend_nonalcohol_drinks,lifetime_spend_alcohol_drinks,lifetime_spend_meat,lifetime_spend_fish,lifetime_spend_hygiene,lifetime_spend_videogames,lifetime_total_distinct_products,percentage_of_products_bought_promotion,year_first_transaction,loyalty_card_number,latitude,longitude,is_business,age,years_as_customer,lifetime_spend,spend_per_year,education_level,2D_DBSCAN_clusters,3D_DBSCAN_cluster
15769,Melissa Abruzzino,female,1945-12-07 03:24:00,1.0,0.0,5.0,1.0,164.0,12.0,9.0,98.0,100.0,194.0,90.0,82.0,60.0,0.0,118.0,0.198868628907073,2008.0,,38.74577495012542,-9.18225237347159,0,78,13.0,800.0,61.53846153846154,0,7,7
28460,Kimberly Borda,female,1955-07-27 01:35:00,0.0,0.0,1.0,1.0,219.0,6.0,11.0,99.0,99.0,381.0,64.0,40.0,54.0,0.0,103.0,0.2048017725476165,2008.0,,38.75916218323592,-9.142191593021623,0,68,13.0,962.0,74.0,0,7,7
27281,Hattie Fawcett,female,1946-07-07 11:23:00,1.0,1.0,2.0,1.0,175.0,9.0,9.0,102.0,101.0,455.0,47.0,32.0,54.0,0.0,108.0,0.1968965007016925,2007.0,,38.77637196792983,-9.189613159946624,0,77,14.0,975.0,69.64285714285714,0,7,7
19253,David Klug,male,1956-10-14 06:13:00,1.0,1.0,2.0,1.0,191.0,14.0,10.0,107.0,95.0,262.0,56.0,53.0,62.0,0.0,91.0,0.2065725429474264,2016.0,,38.72847608083151,-9.181574137909504,0,67,5.0,840.0,168.0,0,7,7
22618,Sofia Donaldson,female,1940-07-12 01:30:00,0.0,0.0,7.0,1.0,143.0,11.0,10.0,94.0,94.0,311.0,46.0,73.0,57.0,0.0,87.0,0.1962083481562679,2008.0,,38.759714272775206,-9.144009339357254,0,83,13.0,829.0,63.76923076923077,0,7,7
13040,Steve Mallory,male,1956-07-08 03:36:00,1.0,1.0,5.0,1.0,270.0,10.0,11.0,95.0,107.0,208.0,27.0,58.0,47.0,0.0,98.0,0.204831879006965,2007.0,,38.76996227835152,-9.139015215067502,0,67,14.0,822.0,58.71428571428572,0,7,7
21376,Janet Obregon,female,1958-05-15 07:19:00,0.0,0.0,4.0,1.0,209.0,8.0,11.0,105.0,101.0,517.0,57.0,52.0,58.0,0.0,102.0,0.1979738119468068,2009.0,,38.72584077081622,-9.144206220995663,0,65,12.0,1107.0,92.25,0,7,7
1041,Jose Bassi,male,1942-03-29 03:22:00,1.0,1.0,2.0,1.0,124.0,11.0,9.0,102.0,93.0,291.0,71.0,45.0,52.0,0.0,102.0,0.1955858426874512,2012.0,,38.7153523315642,-9.171036669416369,0,81,9.0,789.0,87.66666666666667,0,7,7
20928,Mary Morris,female,1944-07-11 06:20:00,0.0,1.0,4.0,1.0,189.0,13.0,9.0,98.0,95.0,203.0,82.0,51.0,54.0,0.0,112.0,0.1978957519446519,2009.0,,38.75471917262111,-9.157755426661744,0,79,12.0,785.0,65.41666666666667,0,7,7
4114,Darlene Lairmore,female,1952-04-15 10:02:00,0.0,0.0,4.0,1.0,197.0,11.0,11.0,98.0,95.0,249.0,62.0,35.0,46.0,0.0,100.0,0.1956617771776462,2008.0,,38.759828528911,-9.19172153804172,0,71,13.0,793.0,61.0,0,7,7
16336,Sherry Mack,female,1941-01-30 08:30:00,0.0,0.0,0.0,1.0,154.0,13.0,9.0,92.0,98.0,445.0,65.0,64.0,42.0,0.0,106.0,0.2046853851733205,2012.0,,38.77892783259008,-9.157236477423684,0,82,9.0,973.0,108.11111111111111,0,7,7
2894,Jennifer Cargle,female,1947-08-25 08:59:00,1.0,0.0,1.0,1.0,171.0,8.0,10.0,109.0,96.0,148.0,66.0,58.0,51.0,0.0,112.0,0.1952666447908993,2014.0,,38.76198113370104,-9.133151825988032,0,76,7.0,707.0,101.0,0,7,7
3414,Ebony Finley,female,1963-10-06 12:59:00,1.0,1.0,6.0,1.0,171.0,10.0,9.0,96.0,94.0,311.0,18.0,53.0,50.0,0.0,95.0,0.2066861654173323,2006.0,,38.75702746912477,-9.134137130243587,0,60,15.0,803.0,53.53333333333333,0,7,7
12497,Edith Sanchez,female,1958-03-22 05:30:00,0.0,1.0,5.0,1.0,144.0,10.0,9.0,97.0,101.0,248.0,27.0,14.0,51.0,0.0,94.0,0.1999051753168755,2008.0,,38.71230931966009,-9.206103073829023,0,65,13.0,692.0,53.23076923076923,0,7,7
24853,Gilbert Dunn,male,1950-10-20 10:09:00,1.0,0.0,5.0,1.0,222.0,10.0,10.0,102.0,95.0,275.0,61.0,29.0,47.0,0.0,88.0,0.2066275958173516,2014.0,,38.75273419622893,-9.179639382148665,0,73,7.0,841.0,120.14285714285714,0,7,7
2269,Janice Pacheco,female,1945-08-01 08:58:00,0.0,1.0,4.0,1.0,293.0,6.0,11.0,110.0,98.0,216.0,32.0,40.0,39.0,0.0,103.0,0.1967315478844436,2003.0,,38.74221765478745,-9.197635050595387,0,78,18.0,834.0,46.333333333333336,0,7,7
12297,Walter Jendras,male,1941-07-17 12:34:00,0.0,1.0,5.0,1.0,230.0,10.0,9.0,102.0,98.0,339.0,20.0,29.0,54.0,0.0,108.0,0.1937784912967556,2009.0,,38.75501462074817,-9.208135473314757,0,82,12.0,882.0,73.5,0,7,7
28339,Bruce King,male,1943-04-03 11:22:00,0.0,1.0,7.0,1.0,272.0,8.0,10.0,98.0,100.0,384.0,19.0,75.0,44.0,0.0,91.0,0.1938828069288613,2014.0,,38.78614125677094,-9.199726811914765,0,80,7.0,1000.0,142.85714285714286,0,7,7
629,Nora Roach,female,1958-04-08 09:51:00,0.0,1.0,2.0,1.0,234.0,13.0,10.0,99.0,93.0,201.0,45.0,33.0,48.0,0.0,95.0,0.1990428928246656,2009.0,992628.0,38.72623518478236,-9.148752394518311,0,65,12.0,766.0,63.833333333333336,0,7,7
6377,Kerry Seacat,female,1964-03-19 08:38:00,0.0,0.0,6.0,1.0,169.0,9.0,9.0,104.0,98.0,371.0,52.0,18.0,51.0,0.0,93.0,0.2087875976859937,2010.0,,38.71764761421801,-9.194409226142996,0,59,11.0,872.0,79.27272727272727,0,7,7
10115,Brett Pogue,male,1964-01-30 02:25:00,1.0,0.0,6.0,1.0,57.0,10.0,9.0,92.0,97.0,313.0,99.0,45.0,45.0,0.0,80.0,0.1984833533128077,2011.0,,38.76197686593284,-9.18455381873784,0,59,10.0,758.0,75.8,0,7,7
22477,Heather Baer,female,1946-06-03 02:15:00,0.0,1.0,5.0,1.0,212.0,9.0,9.0,93.0,98.0,501.0,73.0,43.0,43.0,0.0,104.0,0.1975797468912366,2007.0,,38.71512888991342,-9.154480751471752,0,77,14.0,1072.0,76.57142857142857,0,7,7
15295,Jackie Samons,female,1956-04-20 12:37:00,0.0,1.0,4.0,1.0,228.0,11.0,9.0,101.0,97.0,447.0,26.0,34.0,46.0,0.0,111.0,0.2056426628898591,2007.0,,38.771187373267566,-9.15947685462703,0,67,14.0,990.0,70.71428571428571,0,7,7
12888,Charles Moore,male,1959-05-13 12:14:00,1.0,1.0,5.0,1.0,136.0,10.0,11.0,101.0,105.0,277.0,57.0,55.0,41.0,0.0,93.0,0.1979436683906012,2013.0,,38.73083365269924,-9.163917317342776,0,64,8.0,782.0,97.75,0,7,7
429,Msc. Brandi Cutts,female,1960-05-15 04:52:00,1.0,1.0,1.0,1.0,195.0,15.0,11.0,105.0,96.0,207.0,35.0,74.0,56.0,0.0,103.0,0.1996434430481509,2012.0,901123.0,38.77284261338368,-9.166869620208276,0,63,9.0,783.0,87.0,2,7,7
22486,Victor Carney,male,1943-03-08 03:24:00,0.0,0.0,5.0,1.0,228.0,8.0,10.0,104.0,97.0,386.0,53.0,52.0,47.0,0.0,94.0,0.2014389323198232,2009.0,,38.772763285710816,-9.202165088292327,0,80,12.0,975.0,81.25,0,7,7
1566,Thomas Fike,male,1946-04-12 12:33:00,1.0,1.0,2.0,1.0,145.0,10.0,9.0,106.0,95.0,443.0,16.0,26.0,50.0,0.0,118.0,0.1977413802296615,2007.0,,38.76829117241572,-9.180447906145249,0,77,14.0,891.0,63.642857142857146,0,7,7
25913,Jessica Anderson,female,1954-01-04 02:24:00,1.0,1.0,2.0,1.0,193.0,12.0,12.0,97.0,100.0,437.0,38.0,59.0,49.0,0.0,108.0,0.1960692497424499,2008.0,,38.767991753432646,-9.1634424257353,0,69,13.0,985.0,75.76923076923077,0,7,7
5450,William Salas,male,1943-05-10 03:40:00,1.0,1.0,4.0,1.0,170.0,9.0,10.0,94.0,113.0,190.0,68.0,33.0,47.0,0.0,98.0,0.1929847961165762,2008.0,,38.76723647741574,-9.168547242441642,0,80,13.0,724.0,55.69230769230769,0,7,7
6507,Marian Mong,female,1947-10-13 05:49:00,1.0,1.0,4.0,1.0,278.0,7.0,11.0,107.0,99.0,369.0,45.0,58.0,47.0,0.0,88.0,0.1967664509233472,2009.0,,38.75838390402287,-9.199571399103746,0,76,12.0,1010.0,84.16666666666667,0,7,7
15594,Robert Warner,male,1954-10-20 09:28:00,1.0,0.0,5.0,1.0,183.0,8.0,13.0,94.0,92.0,499.0,36.0,26.0,43.0,0.0,113.0,0.2016225981624772,2012.0,,38.73085210788051,-9.206830458047264,0,69,9.0,981.0,109.0,0,7,7
1634,Mary Guerra,female,1961-07-09 11:36:00,0.0,1.0,2.0,1.0,283.0,12.0,9.0,99.0,101.0,117.0,48.0,59.0,56.0,0.0,91.0,0.1929625675787502,2007.0,,38.7569281613714,-9.13381702821418,0,62,14.0,775.0,55.35714285714285,0,7,7
29702,Juan Vowell,male,1962-12-16 05:47:00,1.0,0.0,3.0,1.0,180.0,11.0,10.0,97.0,102.0,262.0,26.0,92.0,55.0,0.0,96.0,0.2040125764152254,2013.0,,38.71104048870915,-9.183282199094798,0,61,8.0,825.0,103.125,0,7,7
23689,Susanne Hunter,female,1943-12-30 11:45:00,1.0,1.0,6.0,1.0,175.0,11.0,12.0,106.0,106.0,353.0,62.0,36.0,51.0,0.0,104.0,0.2093723800832615,2016.0,,38.70981788856317,-9.200025186215171,0,80,5.0,900.0,180.0,0,7,7
29975,David Henderson,male,1961-05-19 10:39:00,0.0,1.0,2.0,1.0,200.0,9.0,10.0,108.0,107.0,290.0,46.0,43.0,56.0,0.0,100.0,0.2099449582268671,2014.0,,38.78608104410529,-9.145054291698584,0,62,7.0,859.0,122.71428571428572,0,7,7
9249,Kevin Glenn,male,1950-08-11 08:59:00,0.0,1.0,2.0,1.0,123.0,8.0,10.0,103.0,112.0,272.0,66.0,20.0,60.0,0.0,101.0,0.1952678815862438,2010.0,,38.76868429564192,-9.149861165744904,0,73,11.0,764.0,69.45454545454545,0,7,7
18003,Matthew Tate,male,1959-06-17 05:54:00,0.0,1.0,4.0,1.0,208.0,11.0,10.0,91.0,94.0,189.0,48.0,47.0,52.0,0.0,112.0,0.2064588798626959,2011.0,,38.72096719637034,-9.16768259236428,0,64,10.0,740.0,74.0,0,7,7
10612,Theresa Spence,female,1954-09-14 08:15:00,0.0,1.0,4.0,1.0,199.0,8.0,11.0,103.0,98.0,233.0,32.0,53.0,46.0,0.0,64.0,0.1961997504602588,2011.0,,38.71361865969494,-9.21028336544507,0,69,10.0,772.0,77.2,0,7,7
27191,William Lossett,male,1947-09-10 10:26:00,1.0,0.0,3.0,1.0,229.0,8.0,9.0,95.0,94.0,251.0,52.0,26.0,55.0,0.0,104.0,0.1945709423482851,2014.0,,38.75813928730843,-9.157956968330728,0,76,7.0,810.0,115.71428571428572,0,7,7
16403,George Silvey,male,1944-07-17 02:55:00,1.0,0.0,6.0,1.0,202.0,8.0,10.0,102.0,100.0,501.0,42.0,44.0,50.0,0.0,108.0,0.1945406269069463,2009.0,,38.74500610855269,-9.194089027377872,0,79,12.0,1049.0,87.41666666666667,0,7,7
5146,Thelma Fenner,female,1949-10-21 05:09:00,0.0,0.0,5.0,1.0,220.0,11.0,9.0,104.0,100.0,381.0,62.0,70.0,46.0,0.0,100.0,0.196366820207973,2003.0,,38.72099451180538,-9.192213180626576,0,74,18.0,994.0,55.22222222222222,0,7,7
8759,Mary Delong,female,1944-10-14 07:55:00,1.0,0.0,5.0,1.0,173.0,10.0,10.0,105.0,99.0,197.0,73.0,29.0,48.0,0.0,89.0,0.199718270145482,2009.0,,38.725027185196346,-9.165133675782364,0,79,12.0,734.0,61.16666666666666,0,7,7
16032,Burt Young,male,1955-05-24 09:44:00,1.0,0.0,8.0,1.0,150.0,12.0,10.0,97.0,104.0,291.0,54.0,47.0,61.0,0.0,102.0,0.2010673037980119,2014.0,,38.76594542962602,-9.156993848701632,0,68,7.0,816.0,116.57142857142856,0,7,7
28335,Sarah Decambra,female,1953-12-17 08:01:00,1.0,1.0,4.0,1.0,142.0,12.0,10.0,100.0,108.0,426.0,41.0,70.0,61.0,0.0,109.0,0.2011644109183027,2010.0,,38.74231867193085,-9.160583186669705,0,70,11.0,960.0,87.27272727272727,0,7,7
4958,Herma Forbis,female,1953-03-22 12:54:00,1.0,1.0,1.0,1.0,187.0,11.0,10.0,106.0,99.0,309.0,79.0,62.0,52.0,0.0,92.0,0.1941144770584416,2008.0,,38.77159662351792,-9.189729313790204,0,70,13.0,905.0,69.61538461538461,0,7,7
1991,Jesse Williams,male,1959-05-21 08:49:00,1.0,1.0,4.0,1.0,214.0,12.0,9.0,91.0,97.0,241.0,65.0,29.0,48.0,0.0,114.0,0.2014034554980647,2009.0,,38.75323550959812,-9.194071913439933,0,64,12.0,797.0,66.41666666666667,0,7,7
13483,Martin Ferrero,male,1941-11-12 02:16:00,1.0,0.0,3.0,1.0,183.0,9.0,11.0,100.0,96.0,483.0,73.0,77.0,54.0,0.0,106.0,0.1997432516784689,2011.0,,38.70890085682341,-9.176700317105798,0,82,10.0,1075.0,107.5,0,7,7
11461,Douglas Root,male,1961-10-11 03:12:00,1.0,1.0,0.0,1.0,254.0,14.0,10.0,96.0,97.0,310.0,99.0,61.0,42.0,0.0,90.0,0.2054765359583209,2012.0,,38.743130080957584,-9.141277759391594,0,62,9.0,973.0,108.11111111111111,0,7,7
13026,Bryan Everett,male,1955-01-11 09:21:00,0.0,1.0,3.0,1.0,257.0,8.0,12.0,107.0,106.0,223.0,45.0,47.0,55.0,0.0,94.0,0.1999032684421747,2003.0,,38.71467686126308,-9.1538614878315,0,68,18.0,848.0,47.11111111111112,0,7,7
15766,Roger Thorne,male,1950-10-03 02:38:00,1.0,1.0,2.0,1.0,239.0,10.0,10.0,102.0,102.0,327.0,62.0,49.0,51.0,0.0,100.0,0.2055557184453585,2007.0,,38.71655801544015,-9.16399403998184,0,73,14.0,942.0,67.28571428571429,0,7,7
25640,Hope Ziegler,female,1951-12-22 08:48:00,1.0,0.0,3.0,1.0,219.0,11.0,10.0,102.0,93.0,268.0,50.0,2.0,50.0,0.0,104.0,0.1942629572708624,2009.0,,38.78376023234302,-9.204262236836732,0,72,12.0,795.0,66.25,0,7,7
1126,John Mata,male,1949-12-19 05:23:00,1.0,1.0,4.0,1.0,210.0,9.0,10.0,96.0,92.0,335.0,48.0,37.0,52.0,0.0,90.0,0.1927355548700585,2012.0,,38.76325128175549,-9.16874437948688,0,74,9.0,879.0,97.66666666666669,0,7,7
1777,Shawnna Brester,female,1955-12-29 04:43:00,1.0,1.0,1.0,1.0,172.0,12.0,10.0,99.0,98.0,317.0,71.0,50.0,40.0,0.0,100.0,0.1970712055241235,2011.0,,38.786529566922944,-9.14010741058333,0,68,10.0,859.0,85.9,0,7,7
15597,Christine Bishop,female,1957-03-09 11:26:00,0.0,0.0,4.0,1.0,247.0,9.0,10.0,94.0,103.0,327.0,43.0,69.0,52.0,0.0,107.0,0.1931256664145553,2012.0,,38.71646011114938,-9.17577721094745,0,66,9.0,944.0,104.88888888888889,0,7,7
12180,Wendy Abud,female,1944-07-18 08:57:00,1.0,1.0,6.0,1.0,222.0,6.0,9.0,96.0,104.0,430.0,39.0,20.0,49.0,0.0,91.0,0.2056034055733612,2010.0,,38.768619299831975,-9.133366452945369,0,79,11.0,966.0,87.81818181818181,0,7,7
2249,Stacy White,female,1953-05-26 09:40:00,0.0,0.0,3.0,1.0,209.0,10.0,8.0,102.0,102.0,335.0,49.0,41.0,47.0,0.0,97.0,0.1871346091564451,2012.0,,38.75100916310581,-9.18206763872704,0,70,9.0,895.0,99.44444444444444,0,7,7
8004,Roy Wilson,male,1958-07-20 08:26:00,0.0,1.0,6.0,1.0,202.0,9.0,12.0,101.0,98.0,536.0,48.0,62.0,48.0,0.0,93.0,0.202619374466865,2013.0,,38.78773434869807,-9.192320180560111,0,65,8.0,1104.0,138.0,0,7,7
8885,Annie Walls,female,1952-06-14 07:46:00,1.0,0.0,2.0,1.0,275.0,10.0,10.0,101.0,100.0,304.0,25.0,49.0,52.0,0.0,111.0,0.1953504488461675,2004.0,,38.75804582481058,-9.182178512251172,0,71,17.0,916.0,53.88235294117647,0,7,7
25509,James Voorhees,male,1944-03-29 09:08:00,0.0,0.0,5.0,1.0,155.0,7.0,9.0,93.0,101.0,369.0,85.0,27.0,51.0,0.0,89.0,0.1957896121021879,2008.0,,38.71514205985884,-9.134751588921512,0,79,13.0,888.0,68.3076923076923,0,7,7
2797,Moses Koch,male,1950-07-16 01:43:00,1.0,0.0,5.0,1.0,284.0,11.0,10.0,108.0,106.0,266.0,31.0,50.0,53.0,0.0,103.0,0.194076993712688,2003.0,,38.710630472154975,-9.15526169090806,0,73,18.0,909.0,50.5,0,7,7
19150,Luis Hornsby,male,1945-12-22 01:31:00,0.0,1.0,5.0,1.0,219.0,11.0,10.0,108.0,103.0,260.0,22.0,66.0,42.0,0.0,85.0,0.1986003790930863,2009.0,,38.74699434969065,-9.160563558339405,0,78,12.0,831.0,69.25,0,7,7
13170,James Green,male,1949-02-21 12:14:00,1.0,0.0,5.0,1.0,234.0,4.0,10.0,97.0,110.0,220.0,61.0,25.0,51.0,0.0,107.0,0.1978848501152149,2011.0,,38.716510158062285,-9.147707268775155,0,74,10.0,802.0,80.2,0,7,7
15096,Kristi Wittke,female,1950-10-05 11:41:00,0.0,0.0,5.0,1.0,93.0,9.0,10.0,100.0,101.0,198.0,113.0,55.0,50.0,0.0,92.0,0.2042889373005448,2010.0,,38.76655550145446,-9.210276558574622,0,73,11.0,719.0,65.36363636363636,0,7,7
6808,Michael Byers,male,1946-02-11 12:28:00,1.0,0.0,1.0,1.0,288.0,11.0,9.0,96.0,99.0,275.0,22.0,82.0,49.0,0.0,84.0,0.1910084221452152,2011.0,,38.74238507698238,-9.163574220582152,0,77,10.0,922.0,92.2,0,7,7
2891,Hazel Dawkins,female,1947-02-07 01:09:00,0.0,1.0,4.0,1.0,189.0,8.0,9.0,98.0,93.0,281.0,49.0,32.0,45.0,0.0,100.0,0.1966255399565036,2013.0,,38.749710857959904,-9.149163894953317,0,76,8.0,795.0,99.375,0,7,7
23449,Candy Thompson,female,1959-02-17 07:13:00,1.0,1.0,4.0,1.0,128.0,11.0,9.0,88.0,87.0,141.0,33.0,68.0,41.0,0.0,93.0,0.1958586487777885,2014.0,,38.75344299947825,-9.180726540611513,0,64,7.0,597.0,85.28571428571429,0,7,7
5672,Jason Graham,male,1949-04-14 07:58:00,1.0,1.0,2.0,1.0,200.0,10.0,8.0,96.0,98.0,327.0,59.0,18.0,42.0,0.0,101.0,0.1997502771840589,2009.0,,38.71745744531341,-9.14784743948821,0,74,12.0,850.0,70.83333333333333,0,7,7
21021,Sarah Himenez,female,1948-05-26 11:23:00,0.0,1.0,3.0,1.0,168.0,8.0,10.0,99.0,95.0,276.0,63.0,78.0,54.0,0.0,113.0,0.1955985692433157,2008.0,,38.78651929634799,-9.210372365455578,0,75,13.0,841.0,64.6923076923077,0,7,7
20938,Dwight Wilhelm,male,1946-08-20 05:18:00,0.0,1.0,1.0,1.0,183.0,9.0,9.0,112.0,107.0,323.0,58.0,41.0,56.0,0.0,97.0,0.1998260243761784,2010.0,,38.72363527278164,-9.143087316626897,0,77,11.0,889.0,80.81818181818181,0,7,7
28673,Bertha Stickley,female,1943-02-19 07:41:00,0.0,0.0,3.0,1.0,228.0,13.0,11.0,99.0,101.0,156.0,5.0,36.0,50.0,0.0,84.0,0.1977848573232047,2010.0,,38.74751714676983,-9.174519840630762,0,80,11.0,688.0,62.54545454545455,0,7,7
19209,Marshall Miller,male,1947-09-15 01:21:00,0.0,0.0,6.0,1.0,145.0,10.0,11.0,102.0,100.0,351.0,52.0,46.0,52.0,0.0,95.0,0.1990011503369932,2010.0,,38.75914022758934,-9.176395978529955,0,76,11.0,858.0,78.0,0,7,7
1980,Shannon Austin,female,1953-06-12 07:39:00,1.0,1.0,5.0,1.0,195.0,10.0,10.0,95.0,102.0,322.0,66.0,45.0,50.0,0.0,89.0,0.2036703237291654,2015.0,,38.71450866256172,-9.202335923605268,0,70,6.0,885.0,147.5,0,7,7
28363,Terry Zhou,male,1943-08-31 11:21:00,1.0,1.0,6.0,1.0,138.0,10.0,11.0,101.0,93.0,247.0,44.0,65.0,48.0,0.0,90.0,0.19927383858504,2013.0,,38.77242989152512,-9.143472376474026,0,80,8.0,746.0,93.25,0,7,7
28092,William Kenney,male,1955-02-11 05:03:00,0.0,1.0,1.0,1.0,151.0,10.0,9.0,99.0,106.0,236.0,38.0,29.0,52.0,0.0,101.0,0.1961998448175682,2008.0,,38.72257149777979,-9.152342046445394,0,68,13.0,721.0,55.46153846153846,0,7,7
26401,Leah Law,female,1948-04-29 11:54:00,1.0,0.0,1.0,1.0,165.0,5.0,9.0,100.0,97.0,176.0,30.0,53.0,50.0,0.0,101.0,0.1948574251646326,2005.0,,38.74287760205214,-9.209280134835986,0,75,16.0,676.0,42.25,0,7,7
26213,Harry Rochester,male,1946-07-23 08:09:00,0.0,0.0,3.0,1.0,180.0,10.0,9.0,101.0,98.0,430.0,35.0,54.0,45.0,0.0,104.0,0.2060017869104921,2012.0,,38.72655507737632,-9.170326121113057,0,77,9.0,953.0,105.88888888888889,0,7,7
12038,Mark Oelke,male,1964-08-17 07:28:00,0.0,0.0,7.0,1.0,298.0,11.0,10.0,97.0,110.0,360.0,40.0,75.0,50.0,0.0,86.0,0.202521149856089,2012.0,,38.71319195261872,-9.19460432126894,0,59,9.0,1041.0,115.66666666666669,0,7,7
16760,Raul Andrews,male,1959-09-13 05:11:00,0.0,1.0,4.0,1.0,157.0,13.0,9.0,103.0,96.0,265.0,10.0,39.0,47.0,0.0,90.0,0.2031644868617371,2009.0,,38.74341620608193,-9.14802391379776,0,64,12.0,730.0,60.833333333333336,0,7,7
4965,Bryan Castro,male,1953-02-24 07:23:00,1.0,0.0,3.0,1.0,192.0,11.0,10.0,98.0,91.0,177.0,44.0,37.0,46.0,0.0,106.0,0.1960235054186696,2009.0,,38.77728409741412,-9.178565796338871,0,70,12.0,696.0,58.0,0,7,7
8698,Jack Guthrie,male,1960-10-17 05:41:00,0.0,1.0,4.0,1.0,94.0,7.0,10.0,101.0,112.0,252.0,42.0,44.0,55.0,0.0,110.0,0.2054600226341125,2006.0,,38.73226924103497,-9.147396768925615,0,63,15.0,707.0,47.13333333333333,0,7,7
14910,Mindy Richardson,female,1953-06-08 12:45:00,0.0,1.0,6.0,1.0,224.0,10.0,10.0,108.0,96.0,231.0,35.0,68.0,47.0,0.0,106.0,0.2045893979030061,2008.0,,38.73671394853814,-9.202481446685626,0,70,13.0,819.0,63.0,0,7,7
14924,Sheila Santiago,female,1954-04-21 08:12:00,1.0,1.0,2.0,1.0,126.0,12.0,10.0,99.0,113.0,318.0,77.0,80.0,54.0,0.0,99.0,0.2010525775986054,2007.0,,38.77253239109284,-9.187970690273936,0,69,14.0,879.0,62.785714285714285,0,7,7
27074,Lorraine James,female,1940-07-03 07:53:00,1.0,0.0,5.0,1.0,203.0,8.0,11.0,101.0,105.0,295.0,65.0,28.0,46.0,0.0,94.0,0.2015828935855145,2008.0,,38.71639120402606,-9.208722321431807,0,83,13.0,851.0,65.46153846153847,0,7,7
22955,Daniel Taylor,male,1944-01-19 10:57:00,0.0,0.0,4.0,1.0,230.0,8.0,10.0,107.0,98.0,191.0,90.0,46.0,49.0,0.0,110.0,0.2016134112026846,2011.0,,38.75579229212741,-9.150482667662043,0,79,10.0,819.0,81.9,0,7,7
11226,Anthony Davis,male,1964-06-19 05:41:00,0.0,0.0,8.0,1.0,167.0,10.0,11.0,96.0,100.0,278.0,64.0,9.0,45.0,0.0,97.0,0.1976761409035019,2011.0,,38.78820156975832,-9.166552850938398,0,59,10.0,769.0,76.9,0,7,7
9679,Michael Riggs,male,1940-04-01 01:55:00,1.0,1.0,3.0,1.0,323.0,11.0,11.0,105.0,113.0,570.0,98.0,43.0,55.0,0.0,103.0,0.1971115287987119,2010.0,,38.75751183490783,-9.139112090839324,0,83,11.0,1318.0,119.8181818181818,0,7,7
9464,Robert Barrett,male,1942-10-16 10:19:00,0.0,0.0,3.0,1.0,233.0,13.0,10.0,96.0,99.0,307.0,27.0,46.0,55.0,0.0,109.0,0.206159892690613,2014.0,,38.74124666062693,-9.196918915567863,0,81,7.0,876.0,125.14285714285714,0,7,7
6958,Ellen Garcia,female,1947-12-29 08:00:00,0.0,0.0,5.0,1.0,246.0,13.0,10.0,103.0,97.0,150.0,60.0,74.0,45.0,0.0,90.0,0.1953825904215932,2016.0,,38.7335377870754,-9.17392491085354,0,76,5.0,788.0,157.6,0,7,7
10330,Wilhelmina Harris,female,1954-05-31 01:49:00,1.0,1.0,6.0,1.0,203.0,9.0,10.0,98.0,104.0,324.0,56.0,60.0,55.0,0.0,85.0,0.1980991426833106,2008.0,,38.77597958320469,-9.142977107226516,0,69,13.0,909.0,69.92307692307692,0,7,7
14847,John Tran,male,1945-05-05 06:35:00,1.0,1.0,7.0,1.0,159.0,12.0,11.0,102.0,95.0,379.0,45.0,42.0,51.0,0.0,103.0,0.20451602756886,2013.0,,38.70925557418364,-9.19592964829572,0,78,8.0,885.0,110.625,0,7,7
19372,Kenneth Valentin,male,1960-02-06 08:22:00,0.0,1.0,4.0,1.0,258.0,10.0,9.0,100.0,97.0,232.0,52.0,60.0,61.0,0.0,98.0,0.2038813037180505,2009.0,,38.76379284477713,-9.152011371186516,0,63,12.0,870.0,72.5,0,7,7
20724,Eleanor Campos,female,1941-04-12 06:01:00,1.0,1.0,6.0,1.0,142.0,10.0,10.0,92.0,111.0,337.0,43.0,52.0,57.0,0.0,88.0,0.2045762896951596,2009.0,,38.71033037680113,-9.19314174675498,0,82,12.0,844.0,70.33333333333333,0,7,7
26604,Diane Dulany,female,1944-03-07 10:41:00,0.0,0.0,6.0,1.0,158.0,12.0,10.0,92.0,107.0,283.0,57.0,56.0,54.0,0.0,94.0,0.2060941784246598,2012.0,,38.76763446994686,-9.137309425100783,0,79,9.0,819.0,91.0,0,7,7
15285,Dewey Rodriguez,male,1951-05-14 11:56:00,0.0,0.0,3.0,1.0,256.0,9.0,11.0,94.0,98.0,319.0,34.0,61.0,49.0,0.0,100.0,0.2077455681114353,2008.0,,38.72908557164944,-9.168202322365657,0,72,13.0,920.0,70.76923076923077,0,7,7
25382,David Winget,male,1947-07-09 07:58:00,0.0,1.0,9.0,1.0,155.0,10.0,11.0,97.0,98.0,274.0,76.0,54.0,51.0,0.0,95.0,0.1984043272429817,2011.0,,38.71421725366164,-9.148582207793206,0,76,10.0,815.0,81.5,0,7,7
11731,Mike Anderson,male,1962-09-30 12:52:00,0.0,1.0,3.0,1.0,209.0,10.0,9.0,109.0,88.0,43.0,65.0,77.0,40.0,0.0,121.0,0.1986307502563878,2009.0,,38.72524292412391,-9.14155702376041,0,61,12.0,641.0,53.41666666666666,0,7,7
11444,Elinor Brooks,female,1948-06-03 03:22:00,0.0,0.0,5.0,1.0,185.0,8.0,10.0,105.0,99.0,273.0,50.0,91.0,49.0,0.0,101.0,0.2025180628781576,2006.0,,38.73998040022314,-9.193558268295996,0,75,15.0,860.0,57.333333333333336,0,7,7
8192,Betty Olewine,female,1964-06-13 06:47:00,0.0,1.0,0.0,1.0,180.0,11.0,11.0,100.0,93.0,272.0,34.0,67.0,52.0,0.0,102.0,0.1979157063567032,2008.0,,38.7299756268293,-9.180820136321255,0,59,13.0,809.0,62.23076923076923,0,7,7
7816,Andrew Watts,male,1949-12-18 10:11:00,1.0,1.0,5.0,1.0,198.0,12.0,11.0,101.0,97.0,342.0,4.0,62.0,57.0,0.0,84.0,0.2085042112643769,2012.0,,38.72590646217317,-9.146497497091335,0,74,9.0,873.0,97.0,0,7,7
14695,Judy Hibner,female,1958-10-01 10:21:00,0.0,0.0,6.0,1.0,218.0,11.0,9.0,103.0,98.0,181.0,82.0,79.0,51.0,0.0,109.0,0.2002683846680039,2008.0,,38.72581931525254,-9.208442810008592,0,65,13.0,823.0,63.30769230769231,0,7,7
16784,Jay Dreher,male,1956-07-16 11:24:00,1.0,0.0,0.0,1.0,238.0,10.0,11.0,107.0,101.0,297.0,40.0,52.0,48.0,0.0,99.0,0.208750128685948,2009.0,,38.77602950237949,-9.197438127348477,0,67,12.0,893.0,74.41666666666667,0,7,7
13432,Bobby Phillips,male,1958-09-09 06:30:00,0.0,1.0,5.0,1.0,193.0,10.0,10.0,102.0,103.0,408.0,20.0,69.0,45.0,0.0,95.0,0.2026590699162698,2014.0,,38.76262474600843,-9.164657320163323,0,65,7.0,950.0,135.71428571428572,0,7,7
15545,Robert Allen,male,1948-12-04 09:40:00,0.0,0.0,3.0,1.0,147.0,9.0,13.0,95.0,103.0,160.0,81.0,16.0,55.0,0.0,103.0,0.1979894247275634,2008.0,,38.72320693238662,-9.175044419169897,0,75,13.0,666.0,51.23076923076923,0,7,7
10749,Richard Crayton,male,1941-08-24 02:05:00,0.0,1.0,7.0,1.0,201.0,11.0,10.0,100.0,100.0,369.0,34.0,67.0,48.0,0.0,98.0,0.2021527641347271,2009.0,,38.74937291540251,-9.178004831859525,0,82,12.0,930.0,77.5,0,7,7
23900,Darwin Larson,male,1954-07-04 03:01:00,1.0,1.0,3.0,1.0,171.0,9.0,10.0,91.0,105.0,420.0,46.0,41.0,52.0,0.0,102.0,0.201118383105469,2011.0,,38.75941595036417,-9.208796483440503,0,69,10.0,935.0,93.5,0,7,7
6913,Jimmy Kilbane,male,1941-10-24 01:06:00,1.0,1.0,5.0,1.0,191.0,8.0,10.0,97.0,103.0,228.0,60.0,27.0,40.0,0.0,100.0,0.200893131536632,2011.0,,38.7180098778656,-9.210734010903344,0,82,10.0,754.0,75.4,0,7,7
28492,Sally Glesener,female,1953-03-20 06:51:00,0.0,1.0,3.0,1.0,229.0,10.0,10.0,107.0,99.0,321.0,55.0,24.0,50.0,0.0,110.0,0.1990922770798394,2009.0,,38.77159355305812,-9.18956194852862,0,70,12.0,895.0,74.58333333333333,0,7,7
10457,Denise Holland,female,1943-03-08 07:56:00,1.0,0.0,4.0,1.0,298.0,7.0,9.0,97.0,106.0,364.0,29.0,52.0,46.0,0.0,108.0,0.1989180712240999,2008.0,,38.71708728354661,-9.211618672569962,0,80,13.0,999.0,76.84615384615384,0,7,7
26238,Constance Veile,female,1960-08-07 06:25:00,0.0,1.0,4.0,1.0,230.0,9.0,12.0,96.0,103.0,260.0,27.0,58.0,49.0,0.0,97.0,0.1958142350978937,2010.0,,38.73929472210252,-9.20828872106662,0,63,11.0,832.0,75.63636363636364,0,7,7
9918,Myrna Terry,female,1954-11-08 11:08:00,0.0,0.0,3.0,1.0,226.0,9.0,12.0,95.0,102.0,247.0,79.0,55.0,50.0,0.0,110.0,0.2015253622100411,2010.0,,38.71645526775246,-9.208641474780078,0,69,11.0,863.0,78.45454545454545,0,7,7
14482,Alan Saunders,male,1943-10-06 05:28:00,1.0,0.0,2.0,1.0,153.0,11.0,10.0,101.0,106.0,144.0,22.0,77.0,49.0,0.0,99.0,0.2028576837592615,2012.0,,38.763090546851416,-9.164556352428946,0,80,9.0,663.0,73.66666666666667,0,7,7
10646,Alberta Davis,female,1944-02-23 12:50:00,1.0,1.0,8.0,1.0,163.0,8.0,10.0,95.0,105.0,321.0,75.0,26.0,57.0,0.0,94.0,0.2045267008385814,2014.0,,38.75162138301242,-9.18043274188824,0,79,7.0,850.0,121.42857142857144,0,7,7
4422,Debra Morris,female,1952-02-29 10:12:00,0.0,1.0,7.0,1.0,201.0,13.0,10.0,108.0,100.0,240.0,37.0,34.0,51.0,0.0,98.0,0.2034945758390307,2008.0,,38.75959983832581,-9.15971255887352,0,71,13.0,784.0,60.30769230769231,0,7,7
11772,Eileen Mcdonald,female,1963-10-22 07:25:00,0.0,0.0,4.0,1.0,164.0,7.0,10.0,106.0,92.0,330.0,27.0,71.0,39.0,0.0,104.0,0.2014592705865274,2008.0,,38.71098911910419,-9.197163345189756,0,60,13.0,836.0,64.3076923076923,0,7,7
24386,Walter Pelletier,male,1951-09-08 07:40:00,1.0,1.0,4.0,1.0,169.0,12.0,10.0,98.0,105.0,340.0,53.0,36.0,53.0,0.0,101.0,0.2020859859623643,2010.0,,38.76509288508471,-9.18722500519915,0,72,11.0,866.0,78.72727272727273,0,7,7
23650,James Laramore,male,1941-10-21 12:01:00,0.0,0.0,3.0,1.0,175.0,7.0,10.0,89.0,106.0,182.0,58.0,60.0,50.0,0.0,101.0,0.2076552708031842,2002.0,,38.7082528831218,-9.15802446847259,0,82,19.0,727.0,38.26315789473684,0,7,7
21916,Henry Compton,male,1961-11-21 12:09:00,0.0,1.0,4.0,1.0,215.0,9.0,10.0,98.0,101.0,315.0,49.0,78.0,59.0,0.0,90.0,0.2057072458130983,2011.0,,38.78428511339493,-9.14470227211267,0,62,10.0,924.0,92.4,0,7,7
24538,Christopher Ashton,male,1962-02-15 10:46:00,1.0,0.0,9.0,1.0,218.0,12.0,10.0,102.0,103.0,391.0,27.0,55.0,41.0,0.0,114.0,0.1996520939418139,2006.0,,38.77182938173051,-9.190120747636366,0,61,15.0,949.0,63.266666666666666,0,7,7
154,Phd. Greg Engelking,male,1963-08-06 07:20:00,1.0,0.0,2.0,1.0,338.0,11.0,11.0,99.0,104.0,185.0,51.0,50.0,54.0,0.0,92.0,0.2058527783449854,2009.0,957041.0,38.71536846785528,-9.197415606261474,0,60,12.0,892.0,74.33333333333333,3,7,7
16755,Olive Foster,female,1946-09-11 03:09:00,0.0,0.0,6.0,1.0,174.0,13.0,9.0,102.0,102.0,311.0,58.0,37.0,46.0,0.0,94.0,0.1979714112052292,2011.0,,38.71142587776329,-9.203371586803542,0,77,10.0,843.0,84.3,0,7,7
9595,Harvey Zuber,male,1943-05-08 09:11:00,1.0,1.0,3.0,1.0,167.0,13.0,12.0,95.0,100.0,217.0,65.0,68.0,50.0,0.0,106.0,0.1942066859738261,2010.0,,38.750849307504105,-9.192784792524598,0,80,11.0,775.0,70.45454545454545,0,7,7
28652,Eileen Butler,female,1946-05-06 03:23:00,0.0,1.0,1.0,1.0,239.0,10.0,10.0,104.0,97.0,198.0,37.0,76.0,56.0,0.0,95.0,0.1957310847095905,2011.0,,38.76006733136351,-9.176231735095696,0,77,10.0,817.0,81.7,0,7,7
18125,Regina Bailey,female,1964-10-06 11:46:00,1.0,0.0,4.0,1.0,116.0,11.0,10.0,94.0,106.0,274.0,60.0,25.0,43.0,0.0,105.0,0.1990848648981935,2012.0,,38.72440285148882,-9.181283330174129,0,59,9.0,729.0,81.0,0,7,7
28698,Vicki Kelly,female,1943-01-09 04:18:00,1.0,1.0,0.0,1.0,324.0,9.0,11.0,95.0,104.0,298.0,60.0,64.0,45.0,0.0,99.0,0.1973202762342384,2007.0,,38.72466061199592,-9.17910556699304,0,80,14.0,999.0,71.35714285714286,0,7,7
28680,Darryl Galloway,male,1957-09-24 06:30:00,0.0,1.0,4.0,1.0,131.0,9.0,9.0,96.0,99.0,348.0,17.0,49.0,50.0,0.0,99.0,0.196780282616769,2009.0,,38.72824718918576,-9.197350483256225,0,66,12.0,799.0,66.58333333333333,0,7,7
1668,Crystal Velasco,female,1942-07-11 12:45:00,0.0,1.0,3.0,1.0,214.0,10.0,9.0,106.0,92.0,300.0,46.0,58.0,52.0,0.0,87.0,0.2022875893083161,2009.0,,38.749319827542365,-9.133801739322516,0,81,12.0,878.0,73.16666666666667,0,7,7
6104,Shannon Denny,female,1962-11-26 03:29:00,0.0,0.0,2.0,1.0,227.0,11.0,10.0,95.0,97.0,284.0,9.0,39.0,51.0,0.0,112.0,0.1993199171042335,2016.0,,38.74369727774067,-9.185233477812773,0,61,5.0,813.0,162.6,0,7,7
806,Sam Muzquiz,male,1950-02-24 07:26:00,0.0,0.0,5.0,1.0,178.0,9.0,10.0,95.0,97.0,469.0,2.0,94.0,43.0,0.0,104.0,0.1954090776854253,2012.0,,38.77642118740636,-9.133340762880202,0,73,9.0,987.0,109.66666666666669,0,7,7
16991,Richard Guzman,male,1946-02-10 04:41:00,0.0,0.0,9.0,1.0,66.0,10.0,8.0,97.0,101.0,160.0,54.0,16.0,39.0,0.0,100.0,0.2033801593353744,2011.0,,38.74812431363206,-9.189766444624745,0,77,10.0,543.0,54.3,0,7,7
11776,Regina Rushing,female,1951-06-21 05:00:00,1.0,1.0,5.0,1.0,205.0,12.0,10.0,99.0,96.0,236.0,52.0,62.0,44.0,0.0,103.0,0.190912557256915,2013.0,,38.71778075459631,-9.14916875421285,0,72,8.0,806.0,100.75,0,7,7
9708,James Richmond,male,1964-04-06 06:05:00,0.0,0.0,4.0,1.0,235.0,10.0,10.0,100.0,91.0,253.0,38.0,67.0,46.0,0.0,102.0,0.2054590996668108,2007.0,,38.72707494438634,-9.20078786108636,0,59,14.0,840.0,60.0,0,7,7
24480,Sonya Kramer,female,1942-08-31 11:52:00,0.0,1.0,4.0,1.0,301.0,9.0,11.0,106.0,106.0,405.0,48.0,52.0,53.0,0.0,82.0,0.1998538838472136,2012.0,,38.734299213777895,-9.134376878601522,0,81,9.0,1080.0,120.0,0,7,7
18271,Anna Lovell,female,1956-08-23 02:20:00,0.0,1.0,5.0,1.0,178.0,9.0,10.0,100.0,99.0,353.0,72.0,45.0,42.0,0.0,95.0,0.2026446095261709,2010.0,,38.781011596054775,-9.165271947994537,0,67,11.0,898.0,81.63636363636364,0,7,7
13571,Garry Stein,male,1954-03-22 02:29:00,0.0,0.0,2.0,1.0,171.0,10.0,8.0,96.0,99.0,402.0,55.0,60.0,50.0,0.0,96.0,0.2005477869922764,2007.0,,38.7486959210997,-9.20429139477204,0,69,14.0,943.0,67.35714285714286,0,7,7
770,Mattie Culver,female,1952-05-11 06:53:00,1.0,1.0,8.0,1.0,203.0,11.0,11.0,98.0,101.0,334.0,104.0,68.0,52.0,0.0,109.0,0.2053487397703967,2008.0,906160.0,38.764875098799415,-9.210352426483528,0,71,13.0,971.0,74.6923076923077,0,7,7
11928,Richard Davis,male,1958-06-29 07:42:00,0.0,1.0,2.0,1.0,60.0,9.0,9.0,93.0,97.0,275.0,46.0,40.0,58.0,0.0,92.0,0.2034653276115857,2011.0,,38.75474216003988,-9.167302626928496,0,65,10.0,678.0,67.8,0,7,7
22980,Rodger Wallace,male,1953-11-25 06:14:00,0.0,0.0,6.0,1.0,170.0,10.0,11.0,105.0,102.0,309.0,35.0,2.0,45.0,0.0,107.0,0.2008972918269177,2008.0,,38.7859576202266,-9.21250444051622,0,70,13.0,778.0,59.84615384615385,0,7,7
26097,Charles Messer,male,1951-07-13 02:03:00,0.0,0.0,5.0,1.0,213.0,8.0,10.0,92.0,100.0,236.0,77.0,65.0,52.0,0.0,105.0,0.1973858715600135,2006.0,,38.71066031744829,-9.179536368984314,0,72,15.0,843.0,56.2,0,7,7
4211,April Rogers,female,1943-05-30 06:42:00,1.0,0.0,1.0,1.0,175.0,11.0,9.0,98.0,101.0,291.0,49.0,22.0,50.0,0.0,97.0,0.2022127927299568,2008.0,,38.75393289192349,-9.195543890569835,0,80,13.0,797.0,61.30769230769231,0,7,7
16533,Jean Turner,female,1963-01-18 01:24:00,1.0,0.0,2.0,1.0,252.0,8.0,10.0,108.0,99.0,382.0,33.0,70.0,55.0,0.0,103.0,0.1993690331535895,2015.0,,38.70942019318418,-9.172480864025337,0,60,6.0,1007.0,167.83333333333334,0,7,7
9391,Reginald Ibarra,male,1963-02-10 04:17:00,1.0,1.0,2.0,1.0,136.0,6.0,9.0,95.0,104.0,368.0,67.0,17.0,52.0,0.0,109.0,0.1988750442960238,2009.0,,38.7432857743276,-9.20169672909009,0,60,12.0,845.0,70.41666666666667,0,7,7
3937,Shantae Virtue,female,1945-12-13 06:46:00,1.0,0.0,5.0,1.0,228.0,10.0,9.0,100.0,96.0,348.0,27.0,9.0,49.0,0.0,100.0,0.2102052864833644,2008.0,,38.76425519340119,-9.21281424207049,0,78,13.0,867.0,66.6923076923077,0,7,7
14605,Vivian Peterson,female,1955-02-04 10:14:00,0.0,1.0,5.0,1.0,194.0,10.0,12.0,90.0,106.0,295.0,46.0,42.0,39.0,0.0,93.0,0.1973263153183086,2010.0,,38.762189265264325,-9.139786857443085,0,68,11.0,822.0,74.72727272727273,0,7,7
22542,Tenisha Saunders,female,1951-09-11 07:31:00,0.0,0.0,4.0,1.0,175.0,10.0,10.0,91.0,111.0,119.0,13.0,55.0,48.0,0.0,87.0,0.1944699230180178,2010.0,,38.71221104638817,-9.201310677003406,0,72,11.0,622.0,56.54545454545455,0,7,7
12469,Issac Boyce,male,1951-11-16 03:48:00,0.0,0.0,5.0,1.0,245.0,7.0,9.0,106.0,100.0,362.0,53.0,99.0,51.0,0.0,93.0,0.1962357406087572,2013.0,,38.76206715614244,-9.212587629674092,0,72,8.0,1023.0,127.875,0,7,7
10552,Dorothy Barfield,female,1944-11-16 04:08:00,1.0,1.0,3.0,1.0,284.0,11.0,10.0,97.0,111.0,302.0,76.0,39.0,49.0,0.0,93.0,0.2038104108648639,2008.0,,38.78284740427554,-9.18774105468276,0,79,13.0,969.0,74.53846153846153,0,7,7
29435,Herbert Barrett,male,1947-03-25 01:57:00,0.0,1.0,4.0,1.0,300.0,11.0,10.0,111.0,98.0,440.0,55.0,114.0,46.0,0.0,105.0,0.1983056148230111,2007.0,,38.716275697605205,-9.195761156756909,0,76,14.0,1175.0,83.92857142857143,0,7,7
18754,Sallie Acord,female,1944-12-19 06:53:00,0.0,1.0,3.0,1.0,241.0,8.0,10.0,102.0,100.0,216.0,13.0,44.0,51.0,0.0,90.0,0.2072637345541378,2008.0,,38.76137735413848,-9.19873202376107,0,79,13.0,775.0,59.61538461538461,0,7,7
3615,Melisa Wingo,female,1954-04-17 11:23:00,0.0,0.0,2.0,1.0,217.0,11.0,10.0,101.0,100.0,312.0,8.0,45.0,54.0,0.0,120.0,0.2112646693057717,2015.0,,38.7636759880767,-9.139028697504628,0,69,6.0,848.0,141.33333333333334,0,7,7
11959,Helen Coles,female,1953-01-04 02:57:00,1.0,1.0,1.0,1.0,134.0,8.0,10.0,97.0,104.0,376.0,25.0,61.0,46.0,0.0,110.0,0.2070477798976052,2017.0,,38.73087038577274,-9.152388672613103,0,70,4.0,851.0,212.75,0,7,7
25621,Shelia Schupbach,female,1943-03-16 04:50:00,1.0,1.0,3.0,1.0,257.0,14.0,8.0,106.0,100.0,327.0,66.0,65.0,49.0,0.0,110.0,0.1932631271522742,2004.0,,38.77873912217951,-9.20868409748197,0,80,17.0,984.0,57.88235294117647,0,7,7
19416,Angela Loiseau,female,1957-11-17 12:54:00,0.0,0.0,2.0,1.0,226.0,14.0,11.0,105.0,92.0,324.0,13.0,42.0,50.0,0.0,97.0,0.2054269320485676,2015.0,,38.76203843919168,-9.196779110200431,0,66,6.0,866.0,144.33333333333334,0,7,7
23695,Richard Wendt,male,1956-07-23 02:11:00,1.0,1.0,4.0,1.0,238.0,8.0,10.0,104.0,100.0,341.0,85.0,30.0,62.0,0.0,93.0,0.2043709544740315,2012.0,,38.73813361137808,-9.21051106311392,0,67,9.0,968.0,107.55555555555556,0,7,7
3035,Karen Walker,female,1953-08-09 11:45:00,1.0,1.0,2.0,1.0,258.0,7.0,11.0,103.0,102.0,413.0,45.0,28.0,55.0,0.0,106.0,0.2047060028396683,2006.0,,38.76802079762197,-9.151987638873347,0,70,15.0,1011.0,67.4,0,7,7
25030,Harold Chavez,male,1957-12-11 11:19:00,1.0,0.0,1.0,1.0,228.0,12.0,10.0,103.0,104.0,419.0,88.0,32.0,59.0,0.0,113.0,0.1846114064816168,2007.0,,38.76940445113358,-9.196587173221964,0,66,14.0,1045.0,74.64285714285714,0,7,7
7387,Charles Saucedo,male,1949-03-23 12:58:00,0.0,1.0,4.0,1.0,119.0,5.0,9.0,100.0,97.0,299.0,31.0,98.0,51.0,0.0,113.0,0.2040889511712952,2009.0,,38.738846272750735,-9.158017059714773,0,74,12.0,800.0,66.66666666666667,0,7,7
13671,Clinton Rodriguez,male,1962-06-26 04:19:00,0.0,0.0,5.0,1.0,64.0,10.0,10.0,103.0,99.0,391.0,31.0,45.0,55.0,0.0,106.0,0.2048949957347866,2010.0,,38.758983989489,-9.163111202887,0,61,11.0,798.0,72.54545454545455,0,7,7
2440,Eva Jeremiah,female,1961-02-15 05:48:00,1.0,1.0,6.0,1.0,217.0,8.0,9.0,113.0,99.0,465.0,55.0,70.0,46.0,0.0,119.0,0.2081870887039857,2009.0,,38.72611953538564,-9.167861283000642,0,62,12.0,1073.0,89.41666666666667,0,7,7
10546,April Ramos,female,1952-08-30 03:45:00,1.0,1.0,4.0,1.0,176.0,12.0,11.0,92.0,101.0,467.0,55.0,44.0,51.0,0.0,100.0,0.1884584308005247,2008.0,,38.77729412573173,-9.206563881250233,0,71,13.0,998.0,76.76923076923077,0,7,7
1160,Alberta Horton,female,1957-04-28 05:19:00,1.0,0.0,0.0,1.0,296.0,11.0,12.0,107.0,99.0,304.0,62.0,51.0,44.0,0.0,99.0,0.2008943697498526,2009.0,,38.74693292485557,-9.160938853360523,0,66,12.0,974.0,81.16666666666667,0,7,7
13635,Alberta Davis,female,1956-01-25 02:42:00,1.0,1.0,4.0,1.0,232.0,9.0,10.0,99.0,99.0,252.0,76.0,98.0,54.0,0.0,91.0,0.1969834369016534,2010.0,,38.7221490089422,-9.186536853379236,0,67,11.0,919.0,83.54545454545455,0,7,7
16586,Aurora Ott,female,1952-02-12 07:14:00,0.0,0.0,4.0,1.0,162.0,11.0,10.0,98.0,101.0,272.0,54.0,47.0,55.0,0.0,99.0,0.1953141863530853,2005.0,,38.73684760353936,-9.18806447810526,0,71,16.0,800.0,50.0,0,7,7
7468,Jay Colburn,male,1951-09-29 03:48:00,0.0,1.0,7.0,1.0,208.0,11.0,9.0,98.0,97.0,257.0,58.0,14.0,49.0,0.0,94.0,0.194597440149355,2011.0,,38.76823127435398,-9.18978144964196,0,72,10.0,792.0,79.2,0,7,7
21985,Jody Martinez,male,1948-05-13 03:33:00,1.0,1.0,1.0,1.0,180.0,10.0,10.0,102.0,104.0,142.0,88.0,46.0,42.0,0.0,115.0,0.1968946131966663,2010.0,,38.72675149339459,-9.153847262742024,0,75,11.0,714.0,64.9090909090909,0,7,7
18409,Rebecca Bagnoli,female,1943-08-16 06:25:00,0.0,1.0,7.0,1.0,175.0,10.0,11.0,103.0,104.0,171.0,98.0,51.0,49.0,0.0,127.0,0.2101631765754406,2007.0,,38.735822023324495,-9.200585521068552,0,80,14.0,761.0,54.35714285714285,0,7,7
11941,Tyler Lynch,male,1945-05-26 05:21:00,0.0,0.0,6.0,1.0,227.0,13.0,11.0,98.0,102.0,240.0,16.0,2.0,53.0,0.0,96.0,0.2010497242826305,2011.0,,38.76492890790067,-9.159022131107603,0,78,10.0,751.0,75.1,0,7,7
16435,Joe Patrick,male,1941-08-13 06:55:00,0.0,0.0,8.0,1.0,139.0,11.0,10.0,109.0,106.0,327.0,43.0,66.0,45.0,0.0,88.0,0.2074646958651155,2012.0,,38.70976771161747,-9.179667438358203,0,82,9.0,846.0,94.0,0,7,7
14713,Ida Smith,female,1955-09-10 08:24:00,0.0,1.0,3.0,1.0,239.0,10.0,10.0,91.0,98.0,208.0,66.0,42.0,53.0,0.0,103.0,0.1883267272549998,2006.0,,38.71463054947412,-9.180868181597011,0,68,15.0,807.0,53.8,0,7,7
15779,Ellen Tucker,female,1960-07-03 07:36:00,1.0,0.0,5.0,1.0,173.0,13.0,9.0,98.0,95.0,295.0,27.0,36.0,51.0,0.0,106.0,0.1923203665639017,2008.0,,38.75528498763431,-9.186233150130574,0,63,13.0,788.0,60.61538461538461,0,7,7
6381,Darlene Williams,female,1940-07-01 05:36:00,1.0,0.0,6.0,1.0,184.0,14.0,12.0,95.0,96.0,253.0,40.0,70.0,51.0,0.0,93.0,0.2029269688110037,2011.0,,38.76323194584248,-9.142471444951727,0,83,10.0,803.0,80.3,0,7,7
5151,Lester Bush,male,1940-07-31 11:54:00,0.0,0.0,5.0,1.0,238.0,11.0,10.0,100.0,99.0,308.0,37.0,71.0,41.0,0.0,114.0,0.2013861923863298,2011.0,,38.7612872848698,-9.143161990177944,0,83,10.0,905.0,90.5,0,7,7
3360,John Lee,male,1960-10-19 11:45:00,0.0,0.0,4.0,1.0,299.0,13.0,10.0,103.0,102.0,316.0,59.0,51.0,48.0,0.0,120.0,0.194295978960569,2009.0,,38.7790909059977,-9.164098162528743,0,63,12.0,991.0,82.58333333333333,0,7,7
2019,Kathy Ogrady,female,1940-11-14 06:28:00,1.0,0.0,7.0,1.0,264.0,10.0,11.0,108.0,107.0,294.0,41.0,36.0,46.0,0.0,105.0,0.1922218294769906,2008.0,,38.73828220564798,-9.163131859720291,0,83,13.0,906.0,69.6923076923077,0,7,7
4583,Joseph Rollins,male,1956-08-01 12:38:00,0.0,0.0,0.0,1.0,211.0,9.0,11.0,103.0,100.0,336.0,34.0,34.0,47.0,0.0,83.0,0.1963371044833682,2010.0,,38.72919782433533,-9.177461629748306,0,67,11.0,874.0,79.45454545454545,0,7,7
25047,David Brelsford,male,1963-02-08 12:59:00,1.0,1.0,7.0,1.0,182.0,11.0,10.0,95.0,99.0,153.0,41.0,45.0,55.0,0.0,94.0,0.2010680191714902,2004.0,,38.71536469778332,-9.138899004374125,0,60,17.0,681.0,40.05882352941177,0,7,7
492,Lora Zee,female,1940-03-23 09:10:00,1.0,1.0,5.0,1.0,236.0,12.0,10.0,95.0,98.0,317.0,43.0,45.0,44.0,0.0,105.0,0.2040061845273995,2014.0,965628.0,38.78027900336389,-9.167630840515336,0,83,7.0,890.0,127.14285714285714,0,7,7
13277,Brittany Lewandowski,female,1947-10-11 07:03:00,0.0,1.0,6.0,1.0,231.0,10.0,11.0,97.0,100.0,465.0,44.0,44.0,47.0,0.0,109.0,0.1993548506790732,2006.0,,38.75824232166253,-9.167091282152256,0,76,15.0,1038.0,69.2,0,7,7
10213,Teresa Rogers,female,1962-07-25 10:58:00,0.0,1.0,7.0,1.0,251.0,6.0,11.0,100.0,96.0,206.0,13.0,44.0,49.0,0.0,101.0,0.1987665386255619,2010.0,,38.72059673211808,-9.145881194922945,0,61,11.0,765.0,69.54545454545455,0,7,7
14804,Ryan Moore,male,1940-08-29 03:11:00,0.0,0.0,0.0,1.0,186.0,10.0,10.0,89.0,102.0,420.0,31.0,64.0,42.0,0.0,104.0,0.2037276312687891,2013.0,,38.755559557350665,-9.198461539437917,0,83,8.0,944.0,118.0,0,7,7
11016,Javier Clements,male,1957-10-11 08:57:00,0.0,0.0,5.0,1.0,161.0,12.0,10.0,100.0,106.0,220.0,64.0,51.0,53.0,0.0,107.0,0.2044853199122438,2012.0,,38.72943301507488,-9.155582334398032,0,66,9.0,767.0,85.22222222222223,0,7,7
478,Raymond Poling,male,1960-12-03 10:53:00,0.0,1.0,6.0,1.0,223.0,10.0,10.0,101.0,97.0,282.0,72.0,34.0,46.0,0.0,80.0,0.2074738982223118,2016.0,913917.0,38.77112402998262,-9.144961797951774,0,63,5.0,865.0,173.0,0,7,7
11263,William Briggs,male,1953-05-20 11:00:00,0.0,1.0,2.0,1.0,162.0,12.0,9.0,94.0,108.0,368.0,72.0,61.0,50.0,0.0,105.0,0.2069813434913141,2003.0,,38.774798609549,-9.212808359037494,0,70,18.0,927.0,51.5,0,7,7
20021,Genevieve Delacruz,female,1956-02-26 09:18:00,0.0,0.0,1.0,1.0,233.0,8.0,11.0,92.0,108.0,329.0,51.0,53.0,51.0,0.0,110.0,0.1961609347813099,2008.0,,38.71059465186423,-9.19501990895519,0,67,13.0,925.0,71.15384615384616,0,7,7
2054,Michael Watters,male,1941-02-17 10:23:00,0.0,0.0,4.0,1.0,183.0,10.0,10.0,98.0,103.0,308.0,69.0,55.0,65.0,0.0,99.0,0.1918505161214168,2006.0,,38.76308070009427,-9.161893029609978,0,82,15.0,891.0,59.4,0,7,7
13356,Ryan Kirkendall,male,1949-05-25 12:53:00,1.0,1.0,5.0,1.0,258.0,7.0,9.0,96.0,102.0,270.0,54.0,69.0,54.0,0.0,124.0,0.2105827696106776,2009.0,,38.78014212789132,-9.200359351477443,0,74,12.0,910.0,75.83333333333333,0,7,7
886,Roxanne Couley,female,1949-09-19 02:29:00,1.0,0.0,4.0,1.0,197.0,9.0,11.0,101.0,103.0,278.0,66.0,55.0,51.0,0.0,102.0,0.2064645841302774,2010.0,,38.720152345482894,-9.14363452211172,0,74,11.0,860.0,78.18181818181819,0,7,7
4700,Gina Salcedo,female,1947-02-26 02:32:00,0.0,1.0,1.0,1.0,227.0,9.0,9.0,101.0,103.0,293.0,26.0,59.0,44.0,0.0,97.0,0.1961313736252323,2010.0,,38.71812511617888,-9.1670701361724,0,76,11.0,862.0,78.36363636363636,0,7,7
194,Bsc. Angela Veno,female,1962-04-04 11:51:00,0.0,1.0,3.0,1.0,170.0,12.0,10.0,106.0,103.0,183.0,30.0,84.0,50.0,0.0,115.0,0.2037284370418694,2009.0,922748.0,38.76028693167333,-9.14820048984862,0,61,12.0,738.0,61.5,1,7,7
29943,Brittany Gale,female,1940-02-21 10:31:00,0.0,0.0,2.0,1.0,258.0,10.0,10.0,96.0,94.0,166.0,70.0,101.0,46.0,0.0,86.0,0.2053169037186666,2006.0,,38.73620906170846,-9.17938061393368,0,83,15.0,841.0,56.06666666666667,0,7,7
18301,John Magnuson,male,1963-05-19 10:41:00,0.0,0.0,6.0,1.0,302.0,10.0,9.0,100.0,98.0,127.0,48.0,23.0,46.0,0.0,95.0,0.2019879408792979,2011.0,,38.75729574286588,-9.152466742960272,0,60,10.0,754.0,75.4,0,7,7
11831,Dillon Wise,male,1945-04-08 02:06:00,0.0,1.0,4.0,1.0,175.0,13.0,9.0,109.0,105.0,146.0,59.0,68.0,65.0,0.0,110.0,0.2023139249093661,2011.0,,38.78224165552443,-9.149401208991426,0,78,10.0,740.0,74.0,0,7,7
23423,Joanne Thomas,female,1949-10-01 08:38:00,0.0,0.0,8.0,1.0,216.0,12.0,12.0,104.0,100.0,239.0,21.0,56.0,47.0,0.0,111.0,0.1967727027835096,2005.0,,38.70903236561737,-9.147280701988562,0,74,16.0,795.0,49.6875,0,7,7
21694,Lawrence Bartholomew,male,1944-08-04 09:23:00,0.0,0.0,3.0,1.0,216.0,13.0,9.0,93.0,93.0,201.0,36.0,38.0,51.0,0.0,98.0,0.2029583159403879,2012.0,,38.76759914248184,-9.207837889657071,0,79,9.0,741.0,82.33333333333333,0,7,7
29173,Ka Polk,female,1957-07-27 11:48:00,1.0,1.0,8.0,1.0,176.0,8.0,11.0,98.0,103.0,417.0,62.0,64.0,45.0,0.0,99.0,0.1944990081975584,2015.0,,38.78210917727693,-9.1831616013694,0,66,6.0,973.0,162.16666666666666,0,7,7
13361,Krystal Garland,female,1942-08-05 02:17:00,1.0,1.0,5.0,1.0,283.0,6.0,11.0,99.0,94.0,267.0,56.0,45.0,52.0,0.0,111.0,0.2054795188893529,2004.0,,38.71608958381852,-9.194968661279974,0,81,17.0,902.0,53.05882352941177,0,7,7
25869,Bill Francis,male,1961-10-03 09:57:00,0.0,1.0,4.0,1.0,155.0,8.0,9.0,105.0,98.0,498.0,68.0,43.0,55.0,0.0,105.0,0.1940140513482851,2011.0,,38.74535679215558,-9.19279371117802,0,62,10.0,1030.0,103.0,0,7,7
530,Stephen Cresswell,male,1958-01-18 05:56:00,1.0,1.0,5.0,1.0,213.0,13.0,10.0,99.0,108.0,140.0,31.0,21.0,53.0,0.0,90.0,0.1918217311343287,2011.0,930351.0,38.74346125234628,-9.134821388439844,0,65,10.0,678.0,67.8,0,7,7
29253,Donald Aleman,male,1946-04-15 02:44:00,1.0,1.0,4.0,1.0,210.0,11.0,10.0,105.0,94.0,293.0,51.0,52.0,56.0,0.0,110.0,0.1983503333464103,2012.0,,38.720234703307725,-9.184459704005794,0,77,9.0,872.0,96.88888888888889,0,7,7
5189,James Philhower,male,1947-11-28 10:10:00,1.0,1.0,8.0,1.0,134.0,8.0,10.0,102.0,102.0,177.0,26.0,63.0,42.0,0.0,93.0,0.1962165636787235,2007.0,,38.7484956192787,-9.186954939609318,0,76,14.0,654.0,46.71428571428572,0,7,7
29697,Jack Vu,male,1955-03-09 05:28:00,0.0,1.0,0.0,1.0,130.0,6.0,11.0,104.0,105.0,433.0,38.0,40.0,49.0,0.0,111.0,0.1963569084295964,2012.0,,38.77730853206671,-9.14191258722088,0,68,9.0,905.0,100.55555555555556,0,7,7
3739,Robert Hilliard,male,1945-11-30 06:04:00,1.0,0.0,0.0,1.0,237.0,12.0,9.0,105.0,108.0,241.0,70.0,45.0,48.0,0.0,92.0,0.1979129769196805,2008.0,,38.78802931862133,-9.143492268745817,0,78,13.0,866.0,66.61538461538461,0,7,7
5231,John Brantley,male,1941-11-03 04:52:00,1.0,1.0,5.0,1.0,173.0,9.0,11.0,109.0,104.0,532.0,78.0,31.0,56.0,0.0,88.0,0.2024843265819896,2007.0,,38.74850083342064,-9.160720133511562,0,82,14.0,1092.0,78.0,0,7,7
15892,Scott Stone,male,1958-10-27 11:42:00,0.0,1.0,5.0,1.0,183.0,16.0,10.0,103.0,101.0,362.0,38.0,32.0,46.0,0.0,110.0,0.1947290567937512,2014.0,,38.75056086630188,-9.149412883376398,0,65,7.0,881.0,125.85714285714286,0,7,7
20111,Christopher Hannigan,male,1944-01-08 09:59:00,1.0,1.0,2.0,1.0,214.0,8.0,10.0,101.0,108.0,236.0,73.0,29.0,49.0,0.0,99.0,0.2003942024189514,2010.0,,38.76905645008561,-9.159039032885293,0,79,11.0,818.0,74.36363636363636,0,7,7
27553,Naomi Gomez,female,1956-02-04 01:44:00,1.0,1.0,7.0,1.0,178.0,7.0,10.0,114.0,100.0,241.0,33.0,50.0,58.0,0.0,93.0,0.1968360960337715,2012.0,,38.777116924108114,-9.16306047645272,0,67,9.0,781.0,86.77777777777777,0,7,7
6948,Mary Lawson,female,1948-06-25 12:12:00,0.0,1.0,6.0,1.0,242.0,9.0,10.0,112.0,101.0,280.0,33.0,57.0,52.0,0.0,102.0,0.2086503347135667,2005.0,,38.75297203407858,-9.180286098867615,0,75,16.0,886.0,55.375,0,7,7
8175,Jose Steppe,male,1954-02-20 10:33:00,0.0,0.0,3.0,1.0,135.0,12.0,11.0,96.0,93.0,350.0,20.0,77.0,51.0,0.0,110.0,0.1981460709500895,2011.0,,38.74954382041921,-9.161474743424202,0,69,10.0,834.0,83.4,0,7,7
14575,Tommy Troup,male,1954-07-22 10:15:00,0.0,1.0,4.0,1.0,210.0,9.0,11.0,102.0,92.0,317.0,71.0,51.0,51.0,0.0,113.0,0.2014433517468017,2008.0,,38.70863473108961,-9.194911131656587,0,69,13.0,903.0,69.46153846153847,0,7,7
23185,Carla Heitman,female,1953-12-10 10:39:00,1.0,0.0,4.0,1.0,190.0,12.0,12.0,98.0,99.0,163.0,60.0,59.0,46.0,0.0,93.0,0.1985721871870949,2010.0,,38.77756006264615,-9.174305991899695,0,70,11.0,727.0,66.0909090909091,0,7,7
18986,Nelson Harrison,male,1951-02-17 07:31:00,0.0,1.0,6.0,1.0,243.0,8.0,10.0,96.0,100.0,333.0,36.0,52.0,48.0,0.0,106.0,0.1961172077091557,2011.0,,38.73130218707405,-9.202491081133962,0,72,10.0,916.0,91.6,0,7,7
21394,Lorraine Feeney,female,1958-08-31 10:33:00,1.0,1.0,9.0,1.0,193.0,9.0,10.0,100.0,100.0,92.0,15.0,62.0,59.0,0.0,110.0,0.1950029556758945,2010.0,,38.71410523306364,-9.182169163982149,0,65,11.0,630.0,57.27272727272727,0,7,7
9545,Ruth Moore,female,1942-04-27 06:34:00,0.0,0.0,5.0,1.0,187.0,9.0,10.0,94.0,104.0,215.0,27.0,14.0,38.0,0.0,102.0,0.2021598446531003,2010.0,,38.74308739122288,-9.191278758546794,0,81,11.0,688.0,62.54545454545455,0,7,7
21905,Etta Morgan,female,1943-10-06 03:51:00,0.0,1.0,8.0,1.0,260.0,7.0,9.0,97.0,102.0,367.0,20.0,94.0,49.0,0.0,95.0,0.2002635150343386,2007.0,,38.72999747871727,-9.164847886651208,0,80,14.0,996.0,71.14285714285714,0,7,7
12125,Joseph Krupa,male,1944-08-19 04:54:00,0.0,1.0,8.0,1.0,186.0,12.0,11.0,101.0,102.0,417.0,62.0,76.0,53.0,0.0,101.0,0.2094215768404699,2005.0,,38.72298490681961,-9.18452042282847,0,79,16.0,1009.0,63.0625,0,7,7
29891,Juan Beckley,male,1964-09-07 05:10:00,0.0,1.0,6.0,1.0,228.0,11.0,11.0,107.0,96.0,507.0,55.0,86.0,50.0,0.0,118.0,0.1986250029630314,2010.0,,38.779539648724246,-9.136258946612507,0,59,11.0,1140.0,103.63636363636364,0,7,7
1027,Tom Guthrie,male,1946-12-06 10:54:00,0.0,0.0,1.0,1.0,111.0,18.0,11.0,99.0,102.0,278.0,38.0,36.0,52.0,0.0,96.0,0.1988611510678409,2010.0,,38.74328005009402,-9.148449254556573,0,77,11.0,734.0,66.72727272727273,0,7,7
1556,Clinton Bowen,male,1959-03-10 11:26:00,0.0,0.0,6.0,1.0,185.0,5.0,10.0,102.0,104.0,451.0,58.0,79.0,43.0,0.0,115.0,0.1964673723765008,2010.0,,38.73100963033757,-9.20879528426755,0,64,11.0,1027.0,93.36363636363636,0,7,7
5675,Stephanie Tiscareno,female,1954-02-24 11:13:00,0.0,1.0,1.0,1.0,227.0,10.0,11.0,105.0,96.0,348.0,70.0,110.0,44.0,0.0,122.0,0.2114842416376397,2003.0,,38.728303237589216,-9.200307803370876,0,69,18.0,1010.0,56.11111111111112,0,7,7
27744,Adam Songer,male,1954-04-11 12:49:00,1.0,0.0,4.0,1.0,212.0,9.0,9.0,99.0,96.0,207.0,35.0,76.0,53.0,0.0,102.0,0.2026642619464663,2010.0,,38.77280385165978,-9.14271691591142,0,69,11.0,787.0,71.54545454545455,0,7,7
23303,Samuel Rutherford,male,1957-08-26 03:25:00,0.0,0.0,3.0,1.0,239.0,12.0,12.0,97.0,96.0,338.0,73.0,62.0,55.0,0.0,100.0,0.2035666937486155,2009.0,,38.75557172099843,-9.169756233794176,0,66,12.0,972.0,81.0,0,7,7
27971,Dane Rivera,male,1954-02-09 07:49:00,1.0,1.0,3.0,1.0,140.0,11.0,8.0,106.0,100.0,250.0,58.0,24.0,43.0,0.0,112.0,0.1959282782527942,2011.0,,38.72040160104868,-9.208151985806834,0,69,10.0,732.0,73.2,0,7,7
7831,Kathleen Chandler,female,1955-11-16 02:39:00,0.0,1.0,5.0,1.0,227.0,8.0,12.0,91.0,97.0,300.0,28.0,34.0,49.0,0.0,108.0,0.195811635650492,2007.0,,38.77811637823122,-9.210336324883896,0,68,14.0,834.0,59.57142857142857,0,7,7
5543,Jennifer Tsosie,female,1948-09-04 11:58:00,1.0,0.0,2.0,1.0,209.0,7.0,9.0,99.0,108.0,55.0,14.0,43.0,51.0,0.0,113.0,0.2067317457135656,2006.0,,38.708730738397975,-9.195771244887029,0,75,15.0,586.0,39.06666666666667,0,7,7
7211,Curtis Cote,male,1940-09-02 09:00:00,0.0,0.0,6.0,1.0,205.0,9.0,11.0,96.0,96.0,273.0,41.0,87.0,44.0,0.0,102.0,0.1998991625233572,2012.0,,38.71868182091234,-9.14783600373333,0,83,9.0,851.0,94.55555555555556,0,7,7
13184,Patricia Saenz,female,1957-03-08 09:23:00,1.0,1.0,4.0,1.0,176.0,8.0,9.0,98.0,100.0,354.0,42.0,61.0,48.0,0.0,112.0,0.2043245573925517,2011.0,,38.76712034507499,-9.186425325132728,0,66,10.0,887.0,88.7,0,7,7
21964,Terry Raymond,male,1941-04-20 02:55:00,0.0,1.0,6.0,1.0,234.0,7.0,9.0,91.0,94.0,411.0,39.0,45.0,47.0,0.0,111.0,0.1882203724294487,2008.0,,38.70858832511912,-9.2041190920592,0,82,13.0,968.0,74.46153846153847,0,7,7
6430,Chelsea Woolcott,female,1956-03-24 10:18:00,1.0,1.0,4.0,1.0,203.0,9.0,10.0,102.0,91.0,380.0,79.0,42.0,49.0,0.0,106.0,0.1982150520405028,2012.0,,38.78126860225584,-9.20205134776711,0,67,9.0,955.0,106.11111111111111,0,7,7
26925,Ronald Clinch,male,1949-06-19 07:56:00,0.0,1.0,5.0,1.0,214.0,9.0,11.0,99.0,99.0,297.0,54.0,54.0,58.0,0.0,106.0,0.1982286460816416,2012.0,,38.78821027710215,-9.167375510113304,0,74,9.0,884.0,98.22222222222224,0,7,7
10506,John Steakley,male,1961-06-17 04:22:00,0.0,0.0,1.0,1.0,148.0,10.0,10.0,103.0,99.0,304.0,77.0,46.0,65.0,0.0,111.0,0.1949531183461176,2010.0,,38.78218846750559,-9.2088189186331,0,62,11.0,852.0,77.45454545454545,0,7,7
12557,Ina Grimes,female,1964-12-05 08:42:00,0.0,1.0,5.0,1.0,175.0,10.0,9.0,91.0,93.0,354.0,60.0,52.0,49.0,0.0,96.0,0.1981514632746009,2017.0,,38.75617746407247,-9.202740369098027,0,59,4.0,884.0,221.0,0,7,7
13066,Stephanie Flurry,female,1964-10-20 11:27:00,1.0,1.0,5.0,1.0,251.0,8.0,12.0,108.0,104.0,194.0,72.0,64.0,55.0,0.0,111.0,0.201444933009415,2009.0,,38.749536714134734,-9.19827990771407,0,59,12.0,856.0,71.33333333333333,0,7,7
29114,Sharon Harris,female,1955-07-23 06:21:00,0.0,1.0,4.0,1.0,167.0,12.0,9.0,102.0,96.0,265.0,52.0,56.0,50.0,0.0,106.0,0.1965324249462488,2012.0,,38.72655253472569,-9.174576686124784,0,68,9.0,800.0,88.88888888888889,0,7,7
18390,Everett Obrien,male,1943-06-11 11:55:00,0.0,1.0,2.0,1.0,208.0,7.0,10.0,99.0,91.0,192.0,24.0,38.0,56.0,0.0,111.0,0.2042966992043442,2010.0,,38.76551750730291,-9.181508065039177,0,80,11.0,715.0,65.0,0,7,7
2863,Martin Mccalla,male,1946-04-10 10:44:00,0.0,0.0,0.0,1.0,268.0,11.0,10.0,95.0,106.0,187.0,47.0,28.0,49.0,0.0,98.0,0.1979915296402103,2012.0,,38.72725266978304,-9.185403497103842,0,77,9.0,791.0,87.88888888888889,0,7,7
24805,Lela Carmichael,female,1963-02-01 09:38:00,0.0,0.0,3.0,1.0,55.0,9.0,11.0,102.0,97.0,361.0,58.0,38.0,37.0,0.0,116.0,0.1999200559502266,2006.0,,38.70960415480533,-9.177580678439313,0,60,15.0,757.0,50.46666666666667,0,7,7
24368,Israel Weisman,male,1952-06-19 08:11:00,0.0,0.0,4.0,1.0,195.0,8.0,10.0,102.0,103.0,98.0,44.0,63.0,50.0,0.0,99.0,0.2034381505870935,2011.0,,38.7639767050876,-9.155658330629183,0,71,10.0,663.0,66.3,0,7,7
7281,Mary Wiley,female,1942-11-03 05:22:00,1.0,1.0,2.0,1.0,264.0,8.0,12.0,101.0,97.0,272.0,58.0,62.0,52.0,0.0,99.0,0.1984866711195806,2008.0,,38.74642859040188,-9.161770720851145,0,81,13.0,914.0,70.3076923076923,0,7,7
2866,Veronica Vowell,female,1955-06-21 08:06:00,0.0,0.0,7.0,1.0,275.0,10.0,10.0,107.0,86.0,172.0,59.0,59.0,45.0,0.0,99.0,0.1987257759087405,2014.0,,38.737280153987975,-9.137915866144429,0,68,7.0,813.0,116.14285714285714,0,7,7
17278,Nell Sallee,female,1943-01-23 10:37:00,1.0,0.0,5.0,1.0,155.0,13.0,9.0,102.0,97.0,359.0,40.0,84.0,61.0,0.0,99.0,0.2023806033316908,2015.0,,38.71495185763941,-9.150429642149987,0,80,6.0,911.0,151.83333333333334,0,7,7
25765,Paul Morago,male,1952-12-26 03:31:00,1.0,1.0,4.0,1.0,195.0,10.0,10.0,97.0,96.0,301.0,56.0,49.0,53.0,0.0,91.0,0.205713064321933,2013.0,,38.75265457324274,-9.175367259865457,0,71,8.0,857.0,107.125,0,7,7
19085,Tom Meyerson,male,1946-04-28 05:23:00,1.0,0.0,9.0,1.0,212.0,10.0,8.0,98.0,93.0,423.0,48.0,82.0,45.0,0.0,97.0,0.2064384750011995,2012.0,,38.72315333946642,-9.1453801343265,0,77,9.0,1011.0,112.33333333333331,0,7,7
24227,Alton Poindexter,male,1945-11-08 09:38:00,1.0,1.0,8.0,1.0,222.0,9.0,9.0,96.0,106.0,387.0,72.0,83.0,49.0,0.0,103.0,0.1995161550409233,2014.0,,38.741383733729286,-9.188103009173677,0,78,7.0,1024.0,146.28571428571428,0,7,7
17479,Nora Boutwell,female,1942-09-18 12:50:00,1.0,0.0,5.0,1.0,191.0,9.0,10.0,95.0,101.0,363.0,46.0,35.0,49.0,0.0,93.0,0.2054423824967872,2011.0,,38.72964971774767,-9.179193946048573,0,81,10.0,889.0,88.9,0,7,7
25083,Larry Thompson,male,1951-10-13 06:57:00,1.0,1.0,6.0,1.0,181.0,9.0,11.0,99.0,90.0,235.0,14.0,99.0,49.0,0.0,103.0,0.1965004100028383,2014.0,,38.78674111514349,-9.14224813118512,0,72,7.0,776.0,110.85714285714286,0,7,7
10081,Andrea Hall,female,1949-03-15 12:29:00,1.0,1.0,4.0,1.0,152.0,12.0,10.0,102.0,102.0,341.0,39.0,70.0,49.0,0.0,85.0,0.1958529588642149,2013.0,,38.71636119712404,-9.167526657213632,0,74,8.0,867.0,108.375,0,7,7
25338,Leroy Crosby,male,1947-12-31 02:35:00,0.0,0.0,3.0,1.0,245.0,6.0,10.0,100.0,95.0,390.0,47.0,50.0,56.0,0.0,99.0,0.2049880718585662,2012.0,,38.763267955956415,-9.17480092285551,0,76,9.0,989.0,109.88888888888889,0,7,7
8983,Charles Lozano,male,1959-11-20 07:48:00,1.0,1.0,6.0,1.0,190.0,9.0,9.0,108.0,93.0,327.0,78.0,56.0,52.0,0.0,96.0,0.205178355199832,2008.0,,38.77680248712674,-9.158540897296149,0,64,13.0,913.0,70.23076923076923,0,7,7
29635,Darlene Sylvia,female,1942-04-18 10:25:00,0.0,1.0,4.0,1.0,190.0,10.0,10.0,110.0,109.0,442.0,26.0,55.0,49.0,0.0,88.0,0.2022371478919025,2012.0,,38.71806671213311,-9.197412398718903,0,81,9.0,991.0,110.11111111111111,0,7,7
11262,Brandon Coster,male,1943-09-19 08:24:00,0.0,0.0,7.0,1.0,195.0,14.0,10.0,94.0,100.0,346.0,42.0,74.0,39.0,0.0,115.0,0.2083788682670993,2018.0,,38.77552374350144,-9.174378399368786,0,80,3.0,904.0,301.3333333333333,0,7,7
27775,Maude Riendeau,female,1957-04-14 11:51:00,1.0,1.0,3.0,1.0,220.0,11.0,11.0,98.0,104.0,285.0,41.0,53.0,49.0,0.0,107.0,0.1964287459657562,2007.0,,38.75635639854819,-9.20556917094737,0,66,14.0,861.0,61.5,0,7,7
11218,Jennifer Dickhoff,female,1957-03-03 07:53:00,0.0,1.0,7.0,1.0,158.0,12.0,10.0,100.0,100.0,365.0,47.0,18.0,53.0,0.0,115.0,0.1972536425575363,2003.0,,38.7564082092872,-9.193723646812296,0,66,18.0,853.0,47.388888888888886,0,7,7
24806,Pamela Rogers,female,1955-03-29 06:37:00,1.0,0.0,3.0,1.0,280.0,12.0,11.0,97.0,103.0,233.0,61.0,42.0,50.0,0.0,110.0,0.1969971636377535,2009.0,,38.72782884176352,-9.146989182278562,0,68,12.0,878.0,73.16666666666667,0,7,7
23131,Carmen Hartle,female,1943-04-17 02:29:00,1.0,0.0,2.0,1.0,180.0,13.0,11.0,100.0,95.0,246.0,25.0,72.0,53.0,0.0,93.0,0.1933856487434278,2010.0,,38.74105012527927,-9.205605518238626,0,80,11.0,784.0,71.27272727272727,0,7,7
22836,Richard Alvey,male,1941-09-13 05:23:00,0.0,1.0,5.0,1.0,162.0,9.0,10.0,105.0,101.0,438.0,32.0,23.0,43.0,0.0,89.0,0.1936314263831584,2008.0,,38.73602854837864,-9.18155801128737,0,82,13.0,913.0,70.23076923076923,0,7,7
8064,Lottie Griffin,female,1953-05-17 12:06:00,1.0,0.0,2.0,1.0,186.0,8.0,9.0,106.0,104.0,172.0,56.0,48.0,49.0,0.0,97.0,0.1989955519420599,2008.0,,38.745637712080615,-9.175755375716424,0,70,13.0,729.0,56.07692307692308,0,7,7
28965,Rodger Hughes,male,1951-06-14 02:36:00,0.0,0.0,8.0,1.0,167.0,9.0,10.0,102.0,101.0,212.0,61.0,70.0,51.0,0.0,92.0,0.1948906936359635,2011.0,,38.71129073242037,-9.138775465385988,0,72,10.0,773.0,77.3,0,7,7
3637,Alfreda Agosta,female,1961-03-03 02:07:00,1.0,1.0,4.0,1.0,297.0,11.0,11.0,111.0,98.0,352.0,85.0,72.0,46.0,0.0,93.0,0.2026542528776075,2009.0,,38.781121918867214,-9.189746160328223,0,62,12.0,1072.0,89.33333333333333,0,7,7
20485,Diana Sisson,female,1962-09-21 03:20:00,1.0,0.0,3.0,1.0,130.0,9.0,9.0,96.0,94.0,244.0,89.0,30.0,52.0,0.0,110.0,0.1911680156286497,2008.0,,38.77875867375007,-9.13382117794263,0,61,13.0,744.0,57.23076923076923,0,7,7
14594,Nathan Banta,male,1953-07-09 02:06:00,1.0,0.0,3.0,1.0,233.0,6.0,8.0,98.0,104.0,349.0,78.0,31.0,47.0,0.0,114.0,0.2075476241593962,2011.0,,38.77356281467157,-9.178112320493591,0,70,10.0,946.0,94.6,0,7,7
17494,Rosa Ruckman,female,1963-08-18 01:00:00,1.0,1.0,7.0,1.0,174.0,11.0,11.0,97.0,99.0,364.0,79.0,23.0,48.0,0.0,89.0,0.1926026463923898,2009.0,,38.71053372417246,-9.195848073398622,0,60,12.0,895.0,74.58333333333333,0,7,7
28392,Samuel Hoyos,male,1961-11-02 07:02:00,0.0,1.0,6.0,1.0,121.0,10.0,10.0,96.0,103.0,192.0,62.0,37.0,36.0,0.0,106.0,0.1970273828919777,2008.0,,38.73041269839117,-9.199572760022798,0,62,13.0,657.0,50.53846153846154,0,7,7
904,Julio Robinson,male,1949-03-03 06:13:00,1.0,1.0,1.0,1.0,180.0,8.0,10.0,108.0,89.0,156.0,111.0,48.0,42.0,0.0,108.0,0.2038129828843639,2010.0,,38.7851878419382,-9.209075076810535,0,74,11.0,742.0,67.45454545454545,0,7,7
18145,Helen Stafford,female,1957-10-29 04:38:00,0.0,0.0,2.0,1.0,258.0,5.0,9.0,109.0,88.0,276.0,67.0,45.0,56.0,0.0,83.0,0.2020681447074692,2011.0,,38.74279327742092,-9.149261569345608,0,66,10.0,904.0,90.4,0,7,7
14163,Amanda Shook,female,1950-11-11 11:03:00,0.0,1.0,3.0,1.0,214.0,9.0,8.0,93.0,98.0,342.0,39.0,69.0,41.0,0.0,97.0,0.200305819456705,2010.0,,38.785776678645846,-9.134240243978734,0,73,11.0,905.0,82.27272727272727,0,7,7
16142,Danny Fuqua,male,1944-03-17 08:46:00,0.0,1.0,2.0,1.0,307.0,13.0,10.0,102.0,101.0,345.0,40.0,59.0,48.0,0.0,108.0,0.1930802517745528,2009.0,,38.756513285450616,-9.203430683061066,0,79,12.0,1015.0,84.58333333333333,0,7,7
5193,Bruce Cromartie,male,1962-07-13 05:40:00,1.0,1.0,4.0,1.0,279.0,12.0,10.0,101.0,112.0,229.0,58.0,49.0,55.0,0.0,101.0,0.1981770507795539,2015.0,,38.71275390344948,-9.141814538801654,0,61,6.0,895.0,149.16666666666666,0,7,7
22242,Jerry Campbell,male,1957-05-16 05:54:00,0.0,0.0,4.0,1.0,250.0,6.0,11.0,106.0,102.0,436.0,37.0,55.0,49.0,0.0,90.0,0.2007457415709841,2009.0,,38.78724654847406,-9.139430036129411,0,66,12.0,1041.0,86.75,0,7,7
665,David Byerly,male,1943-05-25 04:35:00,1.0,1.0,8.0,1.0,163.0,10.0,10.0,105.0,107.0,297.0,43.0,42.0,52.0,0.0,102.0,0.1951499848050243,2008.0,980999.0,38.76900323983337,-9.186892731468584,0,80,13.0,819.0,63.0,0,7,7
5258,Richard Kimmerle,male,1946-03-07 03:01:00,1.0,0.0,2.0,1.0,89.0,10.0,10.0,107.0,94.0,243.0,26.0,28.0,49.0,0.0,95.0,0.2082273505902411,2004.0,,38.74045280837628,-9.177616202785948,0,77,17.0,646.0,38.0,0,7,7
26367,Bill Knox,male,1961-08-27 01:35:00,1.0,1.0,5.0,1.0,240.0,11.0,10.0,110.0,105.0,222.0,43.0,21.0,54.0,0.0,93.0,0.2000791949938675,2008.0,,38.77551294578343,-9.152455785329748,0,62,13.0,806.0,62.0,0,7,7
19201,Mary Banks,female,1957-08-03 12:41:00,0.0,0.0,3.0,1.0,278.0,10.0,9.0,107.0,105.0,201.0,74.0,51.0,48.0,0.0,84.0,0.205918711344167,2009.0,,38.74045889986038,-9.20757116671047,0,66,12.0,874.0,72.83333333333333,0,7,7
28647,James Herrick,male,1957-09-01 04:47:00,0.0,0.0,6.0,1.0,150.0,12.0,10.0,98.0,103.0,260.0,25.0,73.0,49.0,0.0,88.0,0.195565136056706,2006.0,,38.72659008044429,-9.135037392146897,0,66,15.0,770.0,51.333333333333336,0,7,7
16124,Joanne Perry,female,1957-07-15 06:08:00,0.0,1.0,3.0,1.0,261.0,11.0,9.0,102.0,102.0,286.0,46.0,43.0,54.0,0.0,102.0,0.2028991317888097,2013.0,,38.74041140539477,-9.16573018129924,0,66,8.0,905.0,113.125,0,7,7
1300,Harris Fischer,male,1962-06-04 06:13:00,1.0,1.0,7.0,1.0,91.0,11.0,11.0,103.0,95.0,157.0,35.0,79.0,56.0,0.0,109.0,0.2008238711868852,2013.0,,38.78036085986743,-9.211292729406514,0,61,8.0,627.0,78.375,0,7,7
5492,Raymond Mack,male,1941-03-08 09:29:00,0.0,1.0,1.0,1.0,267.0,12.0,10.0,106.0,95.0,147.0,25.0,42.0,42.0,0.0,93.0,0.1996694153336084,2010.0,,38.76515019551905,-9.150244300862305,0,82,11.0,736.0,66.9090909090909,0,7,7
15427,William Graber,male,1959-11-03 08:02:00,1.0,0.0,3.0,1.0,223.0,10.0,12.0,105.0,115.0,331.0,44.0,50.0,59.0,0.0,110.0,0.1996011800763546,2011.0,,38.77284936549837,-9.149980603185826,0,64,10.0,937.0,93.7,0,7,7
23549,Scott Atkeson,male,1959-01-30 03:45:00,0.0,0.0,8.0,1.0,155.0,9.0,9.0,106.0,100.0,444.0,49.0,69.0,43.0,0.0,93.0,0.1936244052329305,2003.0,,38.7828350409754,-9.145530125965912,0,64,18.0,975.0,54.16666666666666,0,7,7
4053,Amy Brennan,female,1953-04-19 12:39:00,0.0,0.0,2.0,1.0,104.0,12.0,10.0,103.0,105.0,232.0,53.0,63.0,52.0,0.0,108.0,0.1989141137266983,2005.0,,38.73773598261318,-9.176241602738758,0,70,16.0,724.0,45.25,0,7,7
18146,George Quillen,male,1962-05-07 03:18:00,1.0,1.0,9.0,1.0,219.0,10.0,9.0,95.0,102.0,397.0,39.0,38.0,46.0,0.0,87.0,0.2007054011311082,2007.0,,38.7859441426905,-9.212417959267176,0,61,14.0,946.0,67.57142857142857,0,7,7
19776,Bridget Kennedy,female,1943-03-17 10:47:00,1.0,0.0,3.0,1.0,160.0,9.0,11.0,102.0,93.0,176.0,43.0,94.0,42.0,0.0,102.0,0.1990861772441669,2014.0,,38.72196554182151,-9.15017638298948,0,80,7.0,719.0,102.71428571428572,0,7,7
14535,Hugh Hunter,male,1943-05-02 02:45:00,1.0,0.0,6.0,1.0,201.0,10.0,11.0,106.0,99.0,278.0,47.0,23.0,45.0,0.0,107.0,0.198623034311116,2009.0,,38.7383267496855,-9.191042100589728,0,80,12.0,809.0,67.41666666666667,0,7,7
28098,Frank Carney,male,1947-09-19 05:00:00,0.0,0.0,5.0,1.0,68.0,9.0,9.0,108.0,92.0,178.0,79.0,68.0,52.0,0.0,111.0,0.2022467701768069,2007.0,,38.716697533806666,-9.184483358356456,0,76,14.0,654.0,46.71428571428572,0,7,7
26069,Sue Martinez,female,1958-10-02 02:46:00,1.0,0.0,6.0,1.0,237.0,13.0,12.0,98.0,100.0,414.0,58.0,64.0,48.0,0.0,107.0,0.2003564883809999,2011.0,,38.749685478746585,-9.205606275727376,0,65,10.0,1032.0,103.2,0,7,7
17841,Evan Lamb,male,1951-12-07 08:22:00,0.0,0.0,2.0,1.0,230.0,7.0,8.0,99.0,99.0,141.0,48.0,34.0,55.0,0.0,105.0,0.192869711724158,2013.0,,38.76434591157668,-9.179744276197562,0,72,8.0,713.0,89.125,0,7,7
17194,Janell Peterson,female,1956-05-05 06:02:00,1.0,0.0,5.0,1.0,146.0,8.0,10.0,91.0,97.0,365.0,36.0,30.0,44.0,0.0,97.0,0.200741053638071,2013.0,,38.70861998917574,-9.174909766163802,0,67,8.0,817.0,102.125,0,7,7
2793,Ross Herrod,male,1947-08-24 12:01:00,1.0,1.0,2.0,1.0,170.0,7.0,11.0,98.0,109.0,178.0,65.0,52.0,48.0,0.0,109.0,0.1981447094937513,2010.0,,38.763413914953695,-9.159114866304598,0,76,11.0,727.0,66.0909090909091,0,7,7
23981,Steve Aguilar,male,1947-12-18 09:41:00,1.0,0.0,9.0,1.0,194.0,12.0,10.0,102.0,101.0,220.0,61.0,66.0,39.0,0.0,95.0,0.2023319380027429,2009.0,,38.71427502963382,-9.168821057984584,0,76,12.0,795.0,66.25,0,7,7
8016,Edward Collier,male,1950-04-10 11:37:00,0.0,0.0,6.0,1.0,194.0,11.0,10.0,100.0,95.0,426.0,43.0,84.0,43.0,0.0,97.0,0.1987533589177597,2006.0,,38.78644041318031,-9.13941585189706,0,73,15.0,996.0,66.4,0,7,7
5541,Dottie Swain,female,1940-01-16 06:45:00,0.0,1.0,4.0,1.0,144.0,11.0,10.0,97.0,89.0,444.0,53.0,61.0,48.0,0.0,105.0,0.1950655453225716,2011.0,,38.730296126130966,-9.16042056937595,0,83,10.0,947.0,94.7,0,7,7
17276,Deborah Shannon,female,1962-09-17 12:09:00,0.0,0.0,4.0,1.0,97.0,10.0,11.0,94.0,98.0,282.0,50.0,53.0,51.0,0.0,89.0,0.194391820266275,2012.0,,38.75455847904927,-9.154362378601444,0,61,9.0,735.0,81.66666666666667,0,7,7
19781,Dennis Coleman,male,1964-11-13 09:43:00,1.0,0.0,3.0,1.0,254.0,13.0,8.0,112.0,106.0,166.0,23.0,81.0,51.0,0.0,102.0,0.200440771767514,2012.0,,38.713706567278585,-9.208872679366946,0,59,9.0,806.0,89.55555555555556,0,7,7
4921,Kathy Hughes,female,1948-02-05 02:30:00,0.0,1.0,3.0,1.0,217.0,10.0,11.0,93.0,101.0,211.0,51.0,28.0,51.0,0.0,94.0,0.1960927704489533,2003.0,,38.78628499979505,-9.176604619310968,0,75,18.0,762.0,42.333333333333336,0,7,7
12052,Robert Williams,male,1960-08-03 08:03:00,1.0,1.0,4.0,1.0,189.0,9.0,11.0,100.0,107.0,349.0,35.0,38.0,43.0,0.0,105.0,0.2003703648895461,2011.0,,38.7591684000993,-9.205986694142547,0,63,10.0,870.0,87.0,0,7,7
26807,Paul Cox,male,1951-07-17 02:31:00,1.0,1.0,7.0,1.0,189.0,10.0,10.0,94.0,92.0,382.0,75.0,51.0,47.0,0.0,100.0,0.196856492659775,2001.0,,38.71664580013603,-9.191429320715748,0,72,20.0,940.0,47.0,0,7,7
29118,Anna Weber,female,1956-02-07 05:46:00,0.0,0.0,2.0,1.0,168.0,14.0,10.0,101.0,100.0,272.0,41.0,28.0,52.0,0.0,97.0,0.2042031635296456,2014.0,,38.73872485007753,-9.174136281473997,0,67,7.0,776.0,110.85714285714286,0,7,7
23009,Socorro Wrenn,female,1961-08-18 05:10:00,1.0,1.0,8.0,1.0,206.0,10.0,9.0,99.0,90.0,338.0,34.0,77.0,55.0,0.0,116.0,0.2044214872994592,2009.0,,38.72268886137887,-9.158155464328631,0,62,12.0,909.0,75.75,0,7,7
22307,Homer Thornton,male,1946-06-03 06:50:00,1.0,1.0,1.0,1.0,209.0,10.0,9.0,98.0,95.0,233.0,83.0,54.0,52.0,0.0,88.0,0.1963945381682619,2006.0,,38.78654104846503,-9.181417540124995,0,77,15.0,834.0,55.6,0,7,7
12419,Billy Anderson,male,1958-10-22 04:20:00,1.0,0.0,4.0,1.0,166.0,8.0,9.0,100.0,97.0,103.0,25.0,5.0,52.0,0.0,102.0,0.204558308817665,2008.0,,38.77708739926464,-9.19527926249732,0,65,13.0,556.0,42.76923076923077,0,7,7
10610,Jesus Boyce,male,1957-05-19 09:23:00,0.0,1.0,6.0,1.0,238.0,11.0,10.0,93.0,102.0,212.0,50.0,53.0,48.0,0.0,103.0,0.1960664045442178,2011.0,,38.779774088212434,-9.164057259683338,0,66,10.0,807.0,80.7,0,7,7
26689,Martha Dumesnil,female,1957-11-16 12:35:00,1.0,0.0,3.0,1.0,169.0,8.0,10.0,116.0,103.0,355.0,51.0,38.0,53.0,0.0,90.0,0.1943933015960679,2010.0,,38.73101297212779,-9.142411002696404,0,66,11.0,893.0,81.18181818181819,0,7,7
14234,Tiffany Frank,female,1942-03-30 10:31:00,1.0,0.0,4.0,1.0,264.0,10.0,9.0,103.0,97.0,366.0,11.0,45.0,39.0,0.0,104.0,0.1990984638778361,2013.0,,38.73305943714569,-9.162932379353313,0,81,8.0,935.0,116.875,0,7,7
17115,Virgil Vigil,male,1957-03-26 01:09:00,1.0,1.0,2.0,1.0,174.0,12.0,10.0,101.0,102.0,154.0,49.0,68.0,48.0,0.0,105.0,0.191757694580493,2013.0,,38.78754830514319,-9.138401632451338,0,66,8.0,708.0,88.5,0,7,7
23183,Janice Hartman,female,1951-05-02 07:11:00,0.0,1.0,4.0,1.0,164.0,11.0,12.0,98.0,102.0,309.0,53.0,54.0,46.0,0.0,73.0,0.2090005820556426,2014.0,,38.73840413153384,-9.153767957592466,0,72,7.0,837.0,119.57142857142856,0,7,7
9644,Willie Smalley,female,1955-04-18 04:27:00,0.0,1.0,5.0,1.0,263.0,9.0,10.0,98.0,95.0,299.0,50.0,11.0,55.0,0.0,84.0,0.197968330996033,2009.0,,38.758652743890806,-9.201359910509067,0,68,12.0,880.0,73.33333333333333,0,7,7
24732,Lee Cloutman,male,1960-05-19 10:40:00,1.0,1.0,2.0,1.0,177.0,12.0,10.0,102.0,99.0,409.0,44.0,43.0,49.0,0.0,91.0,0.2012533108854665,2010.0,,38.7617547156293,-9.144824843209586,0,63,11.0,935.0,85.0,0,7,7
17853,Michele Lee,female,1940-06-24 08:50:00,1.0,0.0,1.0,1.0,146.0,6.0,11.0,97.0,101.0,422.0,32.0,42.0,50.0,0.0,103.0,0.1979294133627708,2009.0,,38.77588561303177,-9.18515077818731,0,83,12.0,896.0,74.66666666666667,0,7,7
21260,Teresa Quimby,female,1962-03-18 09:54:00,1.0,1.0,6.0,1.0,154.0,11.0,10.0,98.0,106.0,331.0,71.0,81.0,44.0,0.0,110.0,0.1993920512662793,2011.0,,38.76532264043486,-9.18123687992319,0,61,10.0,896.0,89.6,0,7,7
17355,Troy Austin,male,1947-11-24 05:44:00,1.0,0.0,9.0,1.0,210.0,7.0,10.0,99.0,91.0,245.0,9.0,34.0,56.0,0.0,96.0,0.1949871652478186,2007.0,,38.72542945436279,-9.139897018310007,0,76,14.0,751.0,53.642857142857146,0,7,7
