customer_id,customer_name,customer_gender,customer_birthdate,kids_home,teens_home,number_complaints,distinct_stores_visited,lifetime_spend_groceries,lifetime_spend_electronics,typical_hour,lifetime_spend_vegetables,lifetime_spend_nonalcohol_drinks,lifetime_spend_alcohol_drinks,lifetime_spend_meat,lifetime_spend_fish,lifetime_spend_hygiene,lifetime_spend_videogames,lifetime_total_distinct_products,percentage_of_products_bought_promotion,year_first_transaction,loyalty_card_number,latitude,longitude,is_business,age,years_as_customer,lifetime_spend,spend_per_year,education_level,2D_DBSCAN_clusters,3D_DBSCAN_cluster
4239,Sara Moscowitz,female,1999-09-10 03:11:00,0.0,0.0,0.0,2.0,91.0,20.0,22.0,22.0,195.0,964.0,53.0,48.0,47.0,105.0,85.0,0.1921540050500816,2017.0,,38.754262587204245,-9.163397127258571,0,24,4.0,1545.0,386.25,0,0,0
12829,Hilda Huerta,female,2000-01-31 11:43:00,0.0,0.0,0.0,2.0,82.0,22.0,21.0,9.0,172.0,856.0,39.0,39.0,48.0,103.0,83.0,0.2006253949391179,2015.0,,38.75602408777993,-9.162970337848757,0,23,6.0,1370.0,228.3333333333333,0,0,0
15914,Fannie Onisick,female,2001-10-11 09:41:00,0.0,0.0,0.0,2.0,108.0,22.0,23.0,28.0,194.0,891.0,54.0,59.0,37.0,105.0,84.0,0.2040969732383171,2019.0,,38.75677762438401,-9.156132675435265,0,22,2.0,1498.0,749.0,0,0,0
24738,Pamela Bryant,female,2001-12-15 01:55:00,0.0,0.0,0.0,2.0,101.0,18.0,21.0,28.0,201.0,901.0,55.0,50.0,44.0,97.0,80.0,0.1955724227312995,2017.0,,38.73061657252386,-9.158933878574144,0,22,4.0,1495.0,373.75,0,0,0
27691,Tamika Hunsicker,female,1999-03-03 05:27:00,0.0,0.0,0.0,2.0,136.0,20.0,23.0,25.0,208.0,976.0,50.0,50.0,53.0,102.0,68.0,0.1966330455321285,2020.0,,38.74670583787732,-9.169598655254164,0,24,1.0,1620.0,1620.0,0,0,0
8537,Laura Mensalvas,female,2000-08-30 04:30:00,0.0,0.0,0.0,2.0,76.0,23.0,22.0,21.0,201.0,861.0,51.0,63.0,52.0,100.0,72.0,0.2092821291775011,2018.0,,38.65425490436805,-9.209705920078909,0,23,3.0,1448.0,482.6666666666667,0,0,0
5078,Holly Williams,female,2000-02-17 04:00:00,0.0,0.0,0.0,2.0,58.0,21.0,20.0,15.0,205.0,890.0,44.0,66.0,48.0,95.0,76.0,0.2091762774573086,2019.0,,38.73892243767666,-9.163713182409936,0,23,2.0,1442.0,721.0,0,0,0
7397,Eugene Jarvi,male,2001-04-03 03:19:00,0.0,0.0,0.0,2.0,114.0,23.0,21.0,21.0,189.0,891.0,57.0,48.0,45.0,104.0,60.0,0.196548414932844,2014.0,,38.65580940141519,-9.207449861372671,0,22,7.0,1492.0,213.1428571428572,0,0,0
8839,Laura Eckerson,female,1999-12-16 04:21:00,0.0,0.0,0.0,2.0,82.0,18.0,22.0,17.0,194.0,971.0,53.0,56.0,57.0,108.0,93.0,0.1979526280837878,2020.0,,38.75312457479978,-9.15955057357694,0,24,1.0,1556.0,1556.0,0,0,0
12361,Bryan Orozco,male,2000-04-23 10:11:00,0.0,0.0,0.0,2.0,83.0,17.0,22.0,27.0,191.0,858.0,48.0,46.0,50.0,91.0,93.0,0.1980170964627881,2015.0,,38.729444259469126,-9.164767392019144,0,23,6.0,1411.0,235.16666666666663,0,0,0
29037,Rosemary Knox,female,1999-07-24 02:41:00,0.0,0.0,0.0,2.0,80.0,18.0,23.0,22.0,196.0,1000.0,49.0,52.0,50.0,97.0,101.0,0.1980446815506179,2017.0,,38.74411389124893,-9.154544662079402,0,24,4.0,1564.0,391.0,0,0,0
19131,Robert Jordan,male,2001-09-29 02:11:00,0.0,0.0,0.0,2.0,122.0,18.0,23.0,27.0,197.0,905.0,60.0,50.0,54.0,107.0,67.0,0.208358762554994,2017.0,,38.66301382027059,-9.20775561507459,0,22,4.0,1540.0,385.0,0,0,0
9533,Irene Small,female,1999-01-16 07:16:00,0.0,0.0,0.0,2.0,136.0,17.0,23.0,14.0,198.0,916.0,54.0,48.0,47.0,97.0,78.0,0.2038553252954169,2020.0,,38.74271371020438,-9.164774800684455,0,24,1.0,1527.0,1527.0,0,0,0
7276,Rafaela Willett,female,1999-04-22 02:07:00,0.0,0.0,0.0,2.0,111.0,21.0,23.0,21.0,197.0,874.0,56.0,44.0,48.0,109.0,87.0,0.1977448401041776,2016.0,,38.746525614588414,-9.155156074753366,0,24,5.0,1481.0,296.2,0,0,0
1497,Angela Mckee,female,2000-02-29 09:04:00,0.0,0.0,0.0,2.0,115.0,21.0,21.0,16.0,200.0,970.0,48.0,60.0,60.0,100.0,92.0,0.2157090458237953,2020.0,,38.7529783148289,-9.158510250406325,0,23,1.0,1590.0,1590.0,0,0,0
5229,Michael Schell,male,1999-02-05 08:48:00,0.0,0.0,0.0,2.0,94.0,20.0,22.0,26.0,188.0,918.0,47.0,61.0,46.0,102.0,80.0,0.1964430068801773,2014.0,,38.74599002630503,-9.16512324601584,0,24,7.0,1502.0,214.57142857142856,0,0,0
11797,William Crieghton,male,1999-12-22 01:26:00,0.0,0.0,0.0,2.0,107.0,19.0,21.0,14.0,209.0,848.0,53.0,55.0,51.0,96.0,84.0,0.2024276304652586,2015.0,,38.74331246195195,-9.158827001863274,0,24,6.0,1452.0,242.0,0,0,0
5718,William Jenkins,male,2000-04-15 04:54:00,0.0,0.0,0.0,2.0,64.0,19.0,23.0,24.0,184.0,967.0,52.0,42.0,42.0,109.0,89.0,0.2024036390627873,2016.0,,38.65675602467172,-9.19956509048944,0,23,5.0,1503.0,300.6,0,0,0
27311,Richard Walker,male,2000-10-11 06:24:00,0.0,0.0,0.0,2.0,116.0,22.0,22.0,17.0,212.0,961.0,58.0,53.0,52.0,105.0,77.0,0.2044714506476668,2017.0,,38.667255478551056,-9.205527327646584,0,23,4.0,1596.0,399.0,0,0,0
28237,Curtis Bowler,male,2000-12-24 07:33:00,0.0,0.0,0.0,2.0,122.0,21.0,22.0,31.0,209.0,901.0,48.0,56.0,43.0,101.0,89.0,0.1956309168528797,2018.0,,38.75533420576943,-9.158547885045856,0,23,3.0,1532.0,510.6666666666667,0,0,0
3464,Clara Horn,female,1999-05-02 11:39:00,0.0,0.0,0.0,2.0,102.0,19.0,23.0,22.0,196.0,897.0,50.0,47.0,42.0,99.0,80.0,0.2007024560011796,2019.0,,38.72956575633318,-9.160170196027712,0,24,2.0,1474.0,737.0,0,0,0
25865,Paul Johnson,male,1999-05-26 08:57:00,0.0,0.0,0.0,2.0,70.0,22.0,22.0,20.0,197.0,880.0,53.0,38.0,47.0,96.0,55.0,0.1952377109367927,2018.0,,38.75488768322191,-9.17292782211918,0,24,3.0,1423.0,474.3333333333333,0,0,0
2477,Ryan Guild,male,2000-10-23 02:23:00,0.0,0.0,0.0,2.0,107.0,19.0,22.0,25.0,190.0,890.0,51.0,46.0,44.0,110.0,78.0,0.1975661775236205,2017.0,,38.65625346875131,-9.208564688327746,0,23,4.0,1482.0,370.5,0,0,0
8058,Lola Gideon,female,2001-08-31 10:21:00,0.0,0.0,0.0,2.0,91.0,22.0,23.0,21.0,201.0,964.0,44.0,46.0,51.0,106.0,74.0,0.1986103183640029,2017.0,,38.7407914591266,-9.157691124401962,0,22,4.0,1546.0,386.5,0,0,0
6325,Michael Anderson,male,2000-11-05 01:44:00,0.0,0.0,0.0,2.0,87.0,19.0,21.0,26.0,209.0,893.0,49.0,48.0,51.0,103.0,82.0,0.1989473004916649,2017.0,,38.726310607139176,-9.163233919733525,0,23,4.0,1485.0,371.25,0,0,0
518,Janie Martinez,female,2001-01-12 11:37:00,0.0,0.0,0.0,2.0,107.0,21.0,23.0,27.0,216.0,916.0,48.0,54.0,58.0,99.0,69.0,0.1995470742671673,2018.0,,38.75429821077602,-9.151744091984307,0,22,3.0,1546.0,515.3333333333334,0,0,0
5649,Walter Zymowski,male,1999-09-22 08:55:00,0.0,0.0,0.0,2.0,103.0,23.0,18.0,15.0,181.0,794.0,54.0,50.0,46.0,104.0,77.0,0.1990335240588814,2016.0,,38.66550336190054,-9.20073285775727,0,24,5.0,1370.0,274.0,0,0,0
5415,Richard Lavoie,male,2001-03-31 09:36:00,0.0,0.0,0.0,2.0,105.0,23.0,22.0,18.0,213.0,924.0,44.0,53.0,48.0,99.0,98.0,0.1982984774076268,2016.0,,38.65499494984667,-9.197926010612086,0,22,5.0,1527.0,305.4,0,0,0
5056,Albert Brown,male,2000-01-14 03:49:00,0.0,0.0,0.0,2.0,134.0,19.0,23.0,14.0,196.0,906.0,49.0,40.0,48.0,99.0,95.0,0.2080285667842452,2015.0,,38.65691145075844,-9.199773159994082,0,23,6.0,1505.0,250.8333333333333,0,0,0
18668,Barbara Athayde,female,2001-10-27 03:16:00,0.0,0.0,0.0,2.0,74.0,19.0,23.0,23.0,194.0,916.0,52.0,48.0,46.0,99.0,73.0,0.204887345060333,2018.0,,38.75694362109339,-9.151332324019116,0,22,3.0,1471.0,490.3333333333333,0,0,0
3477,Bernice Vanochten,female,2000-02-25 11:00:00,0.0,0.0,0.0,2.0,98.0,16.0,22.0,21.0,196.0,988.0,50.0,44.0,43.0,103.0,92.0,0.1921283348813977,2017.0,,38.74463314221882,-9.153359873443826,0,23,4.0,1559.0,389.75,0,0,0
6806,Charles Moore,male,2000-02-25 04:30:00,0.0,0.0,0.0,2.0,117.0,21.0,22.0,26.0,190.0,923.0,39.0,54.0,49.0,97.0,61.0,0.1956247173297956,2018.0,,38.74387900171241,-9.161436758770428,0,23,3.0,1516.0,505.3333333333333,0,0,0
17747,Norma Barfield,female,2000-03-24 06:57:00,0.0,0.0,0.0,2.0,104.0,18.0,21.0,13.0,204.0,957.0,38.0,54.0,49.0,104.0,83.0,0.1942315717502764,2020.0,,38.75571544576746,-9.167956191637517,0,23,1.0,1541.0,1541.0,0,0,0
13256,Lauren Lancaster,female,2000-01-19 01:06:00,0.0,0.0,0.0,2.0,121.0,19.0,21.0,17.0,202.0,856.0,51.0,46.0,44.0,106.0,85.0,0.198369943728205,2014.0,,38.75221002773961,-9.156872995727236,0,23,7.0,1462.0,208.8571428571429,0,0,0
17974,Steven Doherty,male,2000-02-05 09:04:00,0.0,0.0,0.0,2.0,83.0,21.0,22.0,14.0,186.0,837.0,59.0,57.0,44.0,102.0,75.0,0.1962658088339318,2018.0,,38.73391084852534,-9.157236890033568,0,23,3.0,1403.0,467.6666666666667,0,0,0
13655,Martha Butts,female,1999-04-13 03:47:00,0.0,0.0,0.0,2.0,115.0,16.0,21.0,18.0,211.0,852.0,42.0,59.0,49.0,104.0,83.0,0.2009384742518017,2019.0,,38.72522210166439,-9.155682803733942,0,24,2.0,1466.0,733.0,0,0,0
9014,Vicky Hollenbeck,female,1999-04-11 08:48:00,0.0,0.0,0.0,2.0,97.0,19.0,21.0,25.0,196.0,889.0,51.0,54.0,50.0,106.0,101.0,0.2020501593879924,2018.0,,38.74945131084303,-9.163462345082,0,24,3.0,1487.0,495.6666666666667,0,0,0
16621,June Diggs,female,2000-12-19 05:55:00,0.0,0.0,0.0,2.0,96.0,18.0,21.0,25.0,202.0,843.0,56.0,47.0,54.0,108.0,62.0,0.2008743154638853,2020.0,,38.75443693212115,-9.172412815554466,0,23,1.0,1449.0,1449.0,0,0,0
23059,Susana Wilson,female,2001-05-11 03:24:00,0.0,0.0,0.0,2.0,53.0,21.0,18.0,28.0,202.0,893.0,53.0,51.0,43.0,97.0,95.0,0.2029438173715839,2018.0,,38.74791512530292,-9.158407258631405,0,22,3.0,1441.0,480.3333333333333,0,0,0
22775,Sue Weis,female,1999-06-12 03:14:00,0.0,0.0,0.0,2.0,111.0,20.0,22.0,17.0,204.0,827.0,46.0,53.0,51.0,112.0,86.0,0.189214476122088,2019.0,,38.73229492895289,-9.154533675815523,0,24,2.0,1441.0,720.5,0,0,0
27997,Kenneth Gattison,male,2000-05-26 08:09:00,0.0,0.0,0.0,2.0,93.0,20.0,22.0,24.0,204.0,954.0,48.0,54.0,50.0,89.0,75.0,0.1998750390190347,2016.0,,38.658968419431496,-9.203676644866166,0,23,5.0,1536.0,307.2,0,0,0
2645,Ernesto Megginson,male,2000-03-30 12:51:00,0.0,0.0,0.0,2.0,117.0,18.0,23.0,20.0,200.0,907.0,46.0,40.0,45.0,103.0,85.0,0.2022034152812865,2017.0,,38.75263959081945,-9.151715736667017,0,23,4.0,1496.0,374.0,0,0,0
29564,Carol Rowley,female,2000-09-16 07:22:00,0.0,0.0,0.0,2.0,124.0,22.0,23.0,28.0,196.0,901.0,47.0,58.0,56.0,95.0,69.0,0.1939308132616444,2020.0,,38.74938644290818,-9.16039610879764,0,23,1.0,1527.0,1527.0,0,0,0
8509,Troy Lee,male,1999-11-19 08:43:00,0.0,0.0,0.0,2.0,68.0,20.0,22.0,14.0,186.0,855.0,49.0,45.0,51.0,103.0,70.0,0.204187510891844,2014.0,,38.75220865082542,-9.173614625422031,0,24,7.0,1391.0,198.7142857142857,0,0,0
2158,Raguel Cowman,female,2000-04-30 04:56:00,0.0,0.0,0.0,2.0,75.0,20.0,23.0,16.0,205.0,873.0,49.0,50.0,50.0,98.0,79.0,0.2009531145989975,2017.0,,38.75808625656992,-9.155368557354324,0,23,4.0,1436.0,359.0,0,0,0
346,Donald Bradley,male,1999-03-16 03:20:00,0.0,0.0,0.0,2.0,118.0,20.0,18.0,14.0,220.0,898.0,54.0,51.0,45.0,93.0,93.0,0.2008293806658838,2017.0,989905.0,38.668640404609405,-9.20395100895428,0,24,4.0,1513.0,378.25,0,0,0
13908,Alan Choice,male,2000-06-19 10:13:00,0.0,0.0,0.0,2.0,89.0,16.0,21.0,21.0,206.0,961.0,53.0,55.0,47.0,108.0,82.0,0.2024382029213486,2017.0,,38.66518562087149,-9.204989157297025,0,23,4.0,1556.0,389.0,0,0,0
20181,Tiffany Stafford,female,2001-01-01 09:40:00,0.0,0.0,0.0,2.0,132.0,20.0,23.0,17.0,196.0,872.0,54.0,52.0,50.0,108.0,87.0,0.1968907573297929,2019.0,,38.745536993282606,-9.17061177177445,0,22,2.0,1501.0,750.5,0,0,0
3850,Manuel Dalton,male,2000-06-11 12:13:00,0.0,0.0,0.0,2.0,100.0,24.0,23.0,23.0,197.0,951.0,50.0,46.0,44.0,99.0,68.0,0.1971538985668341,2018.0,,38.74601455945191,-9.151257577333464,0,23,3.0,1534.0,511.3333333333333,0,0,0
16088,Joshua Tran,male,1999-09-14 03:38:00,0.0,0.0,0.0,2.0,72.0,19.0,21.0,27.0,208.0,830.0,50.0,48.0,47.0,99.0,85.0,0.2015589946785035,2017.0,,38.72526427034059,-9.154979180870193,0,24,4.0,1400.0,350.0,0,0,0
20745,Benjamin Mcgrath,male,1999-04-26 10:29:00,0.0,0.0,0.0,2.0,108.0,20.0,22.0,23.0,198.0,864.0,55.0,49.0,47.0,91.0,72.0,0.1958756335969871,2016.0,,38.66598872231634,-9.19987440747555,0,24,5.0,1455.0,291.0,0,0,0
3590,Michael Sutherland,male,2000-03-21 01:13:00,0.0,0.0,0.0,2.0,87.0,16.0,22.0,21.0,199.0,879.0,48.0,51.0,49.0,103.0,85.0,0.1987455884298971,2015.0,,38.66406737036486,-9.199743654507827,0,23,6.0,1453.0,242.16666666666663,0,0,0
26068,Sylvie Ditch,female,1999-11-13 01:44:00,0.0,0.0,0.0,2.0,114.0,18.0,22.0,8.0,186.0,798.0,54.0,51.0,44.0,104.0,89.0,0.1985128038350566,2013.0,,38.66034180761144,-9.212805538084364,0,24,8.0,1377.0,172.125,0,0,0
4588,Sara Maguire,female,1999-08-06 11:51:00,0.0,0.0,0.0,2.0,79.0,19.0,21.0,21.0,213.0,977.0,49.0,49.0,44.0,102.0,79.0,0.2004119260286367,2015.0,,38.66365548889797,-9.202467061342274,0,24,6.0,1553.0,258.8333333333333,0,0,0
8551,Helen Coleman,female,1999-11-18 03:23:00,0.0,0.0,0.0,2.0,109.0,20.0,22.0,16.0,200.0,892.0,55.0,47.0,52.0,103.0,73.0,0.1920097932824588,2018.0,,38.74763288315052,-9.172572617050417,0,24,3.0,1494.0,498.0,0,0,0
20729,Travis Mullins,male,2001-02-06 12:50:00,0.0,0.0,0.0,2.0,80.0,18.0,21.0,25.0,206.0,876.0,51.0,53.0,49.0,85.0,84.0,0.1983054921622087,2016.0,,38.74692691985848,-9.165649848980513,0,22,5.0,1443.0,288.6,0,0,0
2162,Dorothy Warriner,female,1999-07-08 01:44:00,0.0,0.0,0.0,2.0,94.0,21.0,22.0,18.0,192.0,895.0,44.0,51.0,44.0,97.0,109.0,0.2088660340620308,2015.0,,38.73333117684196,-9.167535231745818,0,24,6.0,1456.0,242.66666666666663,0,0,0
13542,Gerald Porter,male,2001-01-02 08:29:00,0.0,0.0,0.0,2.0,86.0,19.0,21.0,19.0,188.0,821.0,48.0,49.0,48.0,93.0,59.0,0.206364454101091,2015.0,,38.743336165555895,-9.161042937798944,0,22,6.0,1371.0,228.5,0,0,0
24757,Timothy Nagy,male,2000-07-03 05:47:00,0.0,0.0,0.0,2.0,113.0,20.0,22.0,30.0,205.0,928.0,48.0,42.0,48.0,103.0,48.0,0.2021492223515716,2014.0,,38.74338048562051,-9.164836061975706,0,23,7.0,1537.0,219.57142857142856,0,0,0
26629,Ronnie Carson,male,2000-11-14 12:26:00,0.0,0.0,0.0,2.0,93.0,23.0,22.0,8.0,176.0,939.0,56.0,56.0,49.0,98.0,65.0,0.200319389755013,2019.0,,38.66157574284671,-9.202136945586968,0,23,2.0,1498.0,749.0,0,0,0
23302,Sally Harney,female,2000-12-30 01:41:00,0.0,0.0,0.0,2.0,116.0,20.0,23.0,13.0,195.0,885.0,54.0,53.0,48.0,98.0,75.0,0.1995720419678892,2016.0,,38.66757485668294,-9.20810826117864,0,23,5.0,1482.0,296.4,0,0,0
17338,John Guzman,male,1999-08-14 01:29:00,0.0,0.0,0.0,2.0,112.0,19.0,22.0,10.0,211.0,942.0,48.0,51.0,58.0,93.0,69.0,0.204640440746384,2017.0,,38.74558335066395,-9.16080966608439,0,24,4.0,1544.0,386.0,0,0,0
4467,Henry Baker,male,2000-05-05 02:25:00,0.0,0.0,0.0,2.0,120.0,17.0,22.0,19.0,195.0,863.0,56.0,46.0,55.0,96.0,82.0,0.2016874760772984,2018.0,,38.65388626563337,-9.19788427786678,0,23,3.0,1467.0,489.0,0,0,0
3625,Dawn Huang,female,2000-03-11 10:46:00,0.0,0.0,0.0,2.0,81.0,22.0,21.0,27.0,202.0,902.0,52.0,53.0,51.0,99.0,65.0,0.20074987844077,2013.0,,38.72638777763293,-9.160401077429947,0,23,8.0,1489.0,186.125,0,0,0
6923,Leslie Grant,female,2000-11-05 10:55:00,0.0,0.0,0.0,2.0,85.0,19.0,21.0,17.0,202.0,863.0,54.0,49.0,56.0,101.0,79.0,0.2038210459383975,2015.0,,38.7572039878678,-9.155010038009785,0,23,6.0,1446.0,241.0,0,0,0
18055,Lanny Greer,male,1999-03-09 07:18:00,0.0,0.0,0.0,2.0,79.0,19.0,21.0,23.0,218.0,852.0,51.0,48.0,53.0,95.0,68.0,0.1959909520079128,2016.0,,38.75684938687052,-9.163581564553152,0,24,5.0,1438.0,287.6,0,0,0
3634,David Rister,male,2001-09-27 03:59:00,0.0,0.0,0.0,2.0,89.0,20.0,23.0,15.0,186.0,982.0,52.0,48.0,48.0,99.0,87.0,0.2044213404512493,2016.0,,38.744408752854405,-9.158108090757732,0,22,5.0,1539.0,307.8,0,0,0
16035,Peter Sloan,male,2001-11-19 01:23:00,0.0,0.0,0.0,2.0,89.0,18.0,22.0,16.0,209.0,875.0,43.0,45.0,46.0,95.0,73.0,0.1955662636884601,2020.0,,38.75885842044998,-9.153067714580883,0,22,1.0,1436.0,1436.0,0,0,0
11120,Gregory Cole,male,2001-07-07 06:52:00,0.0,0.0,0.0,2.0,132.0,22.0,21.0,21.0,208.0,746.0,49.0,53.0,50.0,106.0,81.0,0.2062666627576004,2017.0,,38.6587230291053,-9.198746005811172,0,22,4.0,1387.0,346.75,0,0,0
14809,Dennis Burger,male,2001-10-06 01:21:00,0.0,0.0,0.0,2.0,95.0,16.0,23.0,19.0,199.0,862.0,49.0,49.0,56.0,98.0,81.0,0.1997180494759355,2018.0,,38.7432989545848,-9.160743698442344,0,22,3.0,1443.0,481.0,0,0,0
24188,Donald Condra,male,2000-02-13 08:31:00,0.0,0.0,0.0,2.0,77.0,19.0,22.0,14.0,201.0,977.0,41.0,55.0,57.0,98.0,79.0,0.2081049653408322,2017.0,,38.74367879309311,-9.156466915705282,0,23,4.0,1539.0,384.75,0,0,0
6345,Roy Langley,male,2001-10-15 06:18:00,0.0,0.0,0.0,2.0,150.0,23.0,18.0,23.0,184.0,949.0,50.0,53.0,46.0,96.0,84.0,0.2057818055116744,2014.0,,38.667824952095046,-9.202404301030196,0,22,7.0,1574.0,224.8571428571429,0,0,0
4598,Hermina Thrill,female,2001-03-25 02:47:00,0.0,0.0,0.0,2.0,108.0,21.0,20.0,18.0,217.0,893.0,52.0,49.0,43.0,100.0,87.0,0.1990284883864485,2017.0,,38.74726837556658,-9.15979627448982,0,22,4.0,1501.0,375.25,0,0,0
15022,Kimberly Goodin,female,1999-07-15 08:00:00,0.0,0.0,0.0,2.0,114.0,20.0,22.0,16.0,193.0,918.0,54.0,44.0,50.0,98.0,88.0,0.2053067611729493,2015.0,,38.74515686709109,-9.165982377267266,0,24,6.0,1507.0,251.16666666666663,0,0,0
7315,Patricia Deans,female,1999-06-09 04:16:00,0.0,0.0,0.0,2.0,111.0,23.0,23.0,12.0,193.0,902.0,58.0,45.0,55.0,101.0,95.0,0.1960671433725895,2016.0,,38.65889035234645,-9.19928235367324,0,24,5.0,1500.0,300.0,0,0,0
3493,David Matthews,male,2000-06-18 12:33:00,0.0,0.0,0.0,2.0,110.0,23.0,22.0,22.0,195.0,893.0,54.0,53.0,46.0,103.0,81.0,0.2008497772210324,2020.0,,38.737075845058605,-9.16563665384122,0,23,1.0,1499.0,1499.0,0,0,0
24772,Helen Perry,female,2000-03-30 10:13:00,0.0,0.0,0.0,2.0,135.0,17.0,23.0,21.0,217.0,907.0,56.0,53.0,49.0,98.0,95.0,0.2068427829157962,2017.0,,38.75318484575215,-9.156156510538596,0,23,4.0,1553.0,388.25,0,0,0
4888,Adrian Cahee,male,2001-04-28 12:54:00,0.0,0.0,0.0,2.0,95.0,22.0,18.0,22.0,205.0,858.0,50.0,48.0,53.0,102.0,69.0,0.2060935063550923,2017.0,,38.73932561182799,-9.16452176007105,0,22,4.0,1455.0,363.75,0,0,0
29371,Amy Lucas,female,1999-09-18 09:19:00,0.0,0.0,0.0,2.0,108.0,19.0,23.0,23.0,204.0,859.0,44.0,56.0,50.0,94.0,83.0,0.1955041514611225,2019.0,,38.756805775028965,-9.16114224004553,0,24,2.0,1457.0,728.5,0,0,0
7460,Walter Floyd,male,1999-04-16 02:45:00,0.0,0.0,0.0,2.0,112.0,19.0,22.0,16.0,199.0,841.0,47.0,49.0,45.0,99.0,82.0,0.2009481500226538,2019.0,,38.75827336336774,-9.166393812463063,0,24,2.0,1427.0,713.5,0,0,0
24910,Tommy Kowalski,male,1999-05-17 04:38:00,0.0,0.0,0.0,2.0,103.0,19.0,22.0,18.0,196.0,928.0,46.0,53.0,41.0,105.0,86.0,0.2002736652751775,2016.0,,38.7306887798716,-9.159699926705905,0,24,5.0,1509.0,301.8,0,0,0
29378,Beth Barrow,female,1999-06-07 09:46:00,0.0,0.0,0.0,2.0,111.0,19.0,22.0,30.0,199.0,946.0,39.0,52.0,48.0,99.0,76.0,0.1934859324094573,2017.0,,38.74419632864453,-9.168490273733225,0,24,4.0,1543.0,385.75,0,0,0
26164,Gary Kresge,male,2001-04-02 10:59:00,0.0,0.0,0.0,2.0,120.0,16.0,23.0,25.0,188.0,955.0,42.0,38.0,54.0,103.0,80.0,0.1971215361151932,2018.0,,38.75860309445756,-9.163951445457569,0,22,3.0,1541.0,513.6666666666666,0,0,0
21483,Corrine Rodriguez,female,2001-05-21 12:40:00,0.0,0.0,0.0,2.0,91.0,17.0,22.0,26.0,206.0,744.0,48.0,48.0,50.0,100.0,80.0,0.2005029632616824,2019.0,,38.75643907454359,-9.170770629692818,0,22,2.0,1330.0,665.0,0,0,0
19918,Albert Leach,male,2000-02-01 02:38:00,0.0,0.0,0.0,2.0,81.0,20.0,23.0,26.0,197.0,898.0,52.0,46.0,49.0,104.0,59.0,0.2068393737506979,2020.0,,38.75039576792128,-9.161429302484876,0,23,1.0,1473.0,1473.0,0,0,0
10859,Sherry Johnson,female,2000-05-27 06:01:00,0.0,0.0,0.0,2.0,135.0,21.0,22.0,13.0,176.0,882.0,45.0,51.0,46.0,104.0,86.0,0.2096671828183574,2019.0,,38.74378232420664,-9.168170181504388,0,23,2.0,1473.0,736.5,0,0,0
22268,Larry Ho,male,1999-01-20 04:35:00,0.0,0.0,0.0,2.0,110.0,22.0,22.0,20.0,220.0,936.0,50.0,50.0,51.0,96.0,62.0,0.1986845388962125,2018.0,,38.75051841493873,-9.155769118908738,0,24,3.0,1555.0,518.3333333333334,0,0,0
10904,Judith Wittstock,female,1999-04-17 04:34:00,0.0,0.0,0.0,2.0,88.0,15.0,20.0,10.0,189.0,898.0,53.0,65.0,44.0,97.0,82.0,0.1969765168117959,2015.0,,38.66088287667679,-9.206236661537758,0,24,6.0,1459.0,243.16666666666663,0,0,0
29955,Elise Hyatt,female,1999-05-17 05:32:00,0.0,0.0,0.0,2.0,116.0,19.0,20.0,18.0,191.0,948.0,54.0,56.0,50.0,109.0,77.0,0.1973708792344797,2015.0,,38.73960115982555,-9.162864162149509,0,24,6.0,1561.0,260.1666666666667,0,0,0
15325,Scott Hartmann,male,2001-07-20 11:33:00,0.0,0.0,0.0,2.0,128.0,23.0,22.0,23.0,184.0,926.0,45.0,44.0,54.0,90.0,87.0,0.1944067815671662,2017.0,,38.74946405252346,-9.168766739432922,0,22,4.0,1517.0,379.25,0,0,0
15160,Margaret Mong,female,1999-05-29 07:19:00,0.0,0.0,0.0,2.0,81.0,22.0,20.0,24.0,207.0,804.0,53.0,56.0,41.0,104.0,81.0,0.2005264132428849,2018.0,,38.75061362136277,-9.170926104668569,0,24,3.0,1392.0,464.0,0,0,0
17878,Samira Johnson,female,1999-04-17 04:38:00,0.0,0.0,0.0,2.0,111.0,17.0,22.0,20.0,203.0,972.0,58.0,41.0,48.0,103.0,71.0,0.2003480179967173,2020.0,,38.7490376369266,-9.16592206410604,0,24,1.0,1573.0,1573.0,0,0,0
10032,Rosa Katz,female,2001-10-02 02:48:00,0.0,0.0,0.0,2.0,97.0,23.0,21.0,22.0,212.0,870.0,46.0,52.0,56.0,106.0,82.0,0.2034780724380901,2016.0,,38.75326275531596,-9.158639242603728,0,22,5.0,1484.0,296.8,0,0,0
10171,Lydia Smyth,female,1999-08-04 02:06:00,1.0,0.0,0.0,2.0,122.0,21.0,22.0,18.0,204.0,836.0,51.0,51.0,47.0,100.0,94.0,0.2040486732046177,2020.0,,38.731165444419766,-9.157875820280529,0,24,1.0,1450.0,1450.0,0,0,0
9378,Ruby Kimmel,female,2001-10-09 01:23:00,0.0,0.0,0.0,2.0,124.0,20.0,22.0,24.0,198.0,885.0,56.0,50.0,48.0,106.0,85.0,0.191588419571609,2016.0,,38.747582896758445,-9.164252584979042,0,22,5.0,1511.0,302.2,0,0,0
3728,Carmen Lofland,female,2000-10-09 06:11:00,0.0,0.0,0.0,2.0,58.0,17.0,22.0,17.0,199.0,815.0,50.0,47.0,53.0,98.0,94.0,0.1999515046694666,2017.0,,38.66665847828413,-9.206162798270608,0,23,4.0,1354.0,338.5,0,0,0
29757,Geraldine Ferrell,female,2001-11-16 01:07:00,0.0,0.0,0.0,2.0,121.0,18.0,22.0,19.0,203.0,998.0,51.0,51.0,49.0,98.0,66.0,0.1974516010561416,2017.0,,38.73789472705663,-9.154053235826916,0,22,4.0,1608.0,402.0,0,0,0
26227,Jenny Stanley,female,1999-02-23 05:48:00,0.0,0.0,0.0,2.0,111.0,19.0,23.0,18.0,174.0,914.0,50.0,57.0,60.0,104.0,93.0,0.19368847714409,2020.0,,38.6550178690026,-9.20021122477749,0,24,1.0,1507.0,1507.0,0,0,0
27321,Tim Mondesir,male,2000-08-14 12:36:00,0.0,0.0,0.0,2.0,76.0,22.0,21.0,26.0,204.0,992.0,51.0,56.0,51.0,106.0,76.0,0.1981375958126405,2015.0,,38.743667490771,-9.153660618214396,0,23,6.0,1584.0,264.0,0,0,0
29382,Darrell Harris,male,1999-09-17 06:13:00,0.0,0.0,0.0,2.0,109.0,16.0,22.0,20.0,211.0,911.0,45.0,62.0,56.0,102.0,80.0,0.1982144065988055,2019.0,,38.73583738274238,-9.166836878493132,0,24,2.0,1532.0,766.0,0,0,0
29169,Andrew Smith,male,1999-08-07 07:35:00,0.0,0.0,0.0,2.0,65.0,17.0,22.0,21.0,192.0,912.0,48.0,48.0,48.0,97.0,80.0,0.2021838075157693,2017.0,,38.73641644359176,-9.152828300407934,0,24,4.0,1448.0,362.0,0,0,0
19430,Bennett Brown,male,1999-10-23 11:26:00,0.0,0.0,0.0,2.0,176.0,23.0,23.0,12.0,203.0,1025.0,48.0,49.0,52.0,95.0,86.0,0.2012748323800274,2016.0,,38.75098516945452,-9.157724613947508,0,24,5.0,1683.0,336.6,0,0,0
10587,Mary Williamson,female,2000-10-13 08:55:00,0.0,0.0,0.0,2.0,132.0,21.0,21.0,20.0,201.0,1016.0,49.0,47.0,46.0,99.0,90.0,0.1988939195555056,2017.0,,38.74577844527797,-9.156139783212604,0,23,4.0,1631.0,407.75,0,0,0
20789,Jonah Eckhardt,male,1999-08-15 03:24:00,0.0,0.0,0.0,2.0,85.0,14.0,21.0,22.0,200.0,997.0,45.0,51.0,63.0,103.0,76.0,0.2032321417189129,2019.0,,38.757002210777706,-9.166278663617112,0,24,2.0,1580.0,790.0,0,0,0
10776,Shelia Glassman,female,2001-06-06 03:16:00,0.0,0.0,0.0,2.0,56.0,24.0,18.0,26.0,220.0,943.0,48.0,48.0,52.0,99.0,81.0,0.2054550266637437,2018.0,,38.66607291083877,-9.202546442994242,0,22,3.0,1516.0,505.3333333333333,0,0,0
20668,Sharla Goff,female,1999-08-16 06:11:00,0.0,0.0,0.0,2.0,90.0,18.0,22.0,17.0,200.0,927.0,48.0,47.0,45.0,100.0,76.0,0.1883310575386969,2014.0,,38.75619283135014,-9.16176802542817,0,24,7.0,1492.0,213.1428571428572,0,0,0
21931,Michael Murray,male,2000-05-27 09:47:00,0.0,0.0,0.0,2.0,78.0,21.0,23.0,20.0,205.0,987.0,47.0,44.0,56.0,99.0,70.0,0.2041465472207051,2015.0,,38.73594586362478,-9.162581151581918,0,23,6.0,1557.0,259.5,0,0,0
17253,Paul Johnston,male,2001-03-23 09:43:00,0.0,0.0,0.0,2.0,81.0,17.0,22.0,25.0,200.0,879.0,55.0,47.0,46.0,100.0,74.0,0.1963323406054996,2017.0,,38.66163136948752,-9.200671062688007,0,22,4.0,1450.0,362.5,0,0,0
21002,Timothy Braun,male,2000-08-04 10:42:00,0.0,0.0,0.0,2.0,105.0,19.0,23.0,24.0,196.0,920.0,48.0,40.0,51.0,111.0,73.0,0.1994636320442394,2020.0,,38.72682615556169,-9.156447702501124,0,23,1.0,1514.0,1514.0,0,0,0
27716,Gregory Black,male,2000-06-07 12:20:00,0.0,0.0,0.0,2.0,104.0,22.0,23.0,21.0,207.0,836.0,52.0,49.0,42.0,98.0,66.0,0.2007555761344463,2018.0,,38.75535393873269,-9.165109192160044,0,23,3.0,1431.0,477.0,0,0,0
2910,Ana Hargrave,female,2000-09-03 07:58:00,0.0,0.0,0.0,2.0,80.0,22.0,21.0,21.0,198.0,991.0,57.0,46.0,55.0,95.0,79.0,0.2045617679926866,2016.0,,38.73276177020645,-9.16736179334951,0,23,5.0,1565.0,313.0,0,0,0
27335,Carmen Leaver,female,1999-09-29 10:37:00,0.0,0.0,0.0,2.0,74.0,25.0,23.0,18.0,200.0,884.0,58.0,58.0,56.0,104.0,86.0,0.1936381975670806,2015.0,,38.74012578263516,-9.158517021354424,0,24,6.0,1477.0,246.16666666666663,0,0,0
14660,Essie Zeiler,female,2001-11-25 01:02:00,0.0,0.0,0.0,2.0,100.0,20.0,21.0,16.0,180.0,892.0,46.0,51.0,49.0,98.0,80.0,0.1966238609102393,2014.0,,38.7351800669224,-9.15974967398526,0,22,7.0,1452.0,207.42857142857144,0,0,0
26333,Robert Hartley,male,2000-05-11 10:53:00,0.0,0.0,0.0,2.0,107.0,20.0,23.0,10.0,207.0,896.0,58.0,38.0,51.0,103.0,86.0,0.1963242367732656,2019.0,,38.74939894948701,-9.162492270843796,0,23,2.0,1490.0,745.0,0,0,0
5615,Mohamed Halseth,male,2001-08-19 02:30:00,0.0,0.0,0.0,2.0,76.0,21.0,20.0,14.0,187.0,846.0,42.0,53.0,47.0,92.0,76.0,0.1941825661442382,2018.0,,38.742327816175056,-9.164965218447588,0,22,3.0,1378.0,459.3333333333333,0,0,0
29439,Patricia Mckinney,female,2000-03-29 06:36:00,0.0,0.0,0.0,2.0,111.0,20.0,21.0,17.0,198.0,900.0,56.0,55.0,52.0,100.0,105.0,0.2074872928642234,2015.0,,38.75099995396153,-9.170171159769277,0,23,6.0,1509.0,251.5,0,0,0
4992,Johana Good,female,1999-09-10 10:29:00,0.0,0.0,0.0,2.0,105.0,17.0,22.0,17.0,216.0,879.0,51.0,54.0,36.0,97.0,90.0,0.1957013916648045,2020.0,,38.654262721445726,-9.20472613043157,0,24,1.0,1472.0,1472.0,0,0,0
3902,Heather Saucedo,female,2001-04-20 03:28:00,0.0,0.0,0.0,2.0,71.0,17.0,22.0,19.0,191.0,894.0,46.0,50.0,53.0,98.0,82.0,0.1923105812290095,2014.0,,38.74756215715448,-9.162557385787114,0,22,7.0,1439.0,205.57142857142856,0,0,0
14918,Larry Gillette,male,2000-12-16 07:56:00,0.0,0.0,0.0,2.0,89.0,23.0,22.0,24.0,186.0,844.0,46.0,51.0,48.0,101.0,92.0,0.1922916248685541,2014.0,,38.750279942232346,-9.173344168465588,0,23,7.0,1412.0,201.7142857142857,0,0,0
20448,Lannie Sembler,female,2001-05-19 02:57:00,0.0,0.0,0.0,2.0,93.0,21.0,23.0,27.0,218.0,918.0,57.0,45.0,50.0,98.0,69.0,0.2066294678514723,2014.0,,38.75061512520816,-9.167311277756776,0,22,7.0,1527.0,218.1428571428572,0,0,0
8996,Mark Kale,male,2001-02-15 01:07:00,0.0,0.0,0.0,2.0,94.0,21.0,22.0,25.0,215.0,882.0,49.0,55.0,53.0,96.0,79.0,0.2031213785596782,2016.0,,38.727863882843096,-9.16331791883103,0,22,5.0,1490.0,298.0,0,0,0
9447,Myrtle Roberts,female,1999-12-09 10:44:00,0.0,0.0,0.0,2.0,93.0,17.0,22.0,15.0,194.0,946.0,57.0,44.0,52.0,92.0,75.0,0.2059206179477734,2013.0,,38.75845519841606,-9.152210437898004,0,24,8.0,1510.0,188.75,0,0,0
12717,Carmen Harris,female,2000-09-25 12:10:00,0.0,0.0,0.0,2.0,53.0,22.0,21.0,22.0,213.0,879.0,46.0,58.0,59.0,99.0,79.0,0.1892809783879183,2017.0,,38.74314147880965,-9.1652456203303,0,23,4.0,1451.0,362.75,0,0,0
19160,Emmitt Mccollough,male,2001-09-07 07:12:00,0.0,0.0,0.0,2.0,67.0,22.0,22.0,15.0,204.0,1036.0,53.0,63.0,49.0,101.0,87.0,0.2111253328044991,2015.0,,38.73717878055793,-9.160525621829605,0,22,6.0,1610.0,268.3333333333333,0,0,0
1505,Ruth Somers,female,1999-03-03 09:55:00,0.0,0.0,0.0,2.0,67.0,21.0,21.0,15.0,211.0,942.0,51.0,45.0,56.0,97.0,80.0,0.2021232801429834,2014.0,,38.72905321965184,-9.16622514494924,0,24,7.0,1505.0,215.0,0,0,0
28830,Martin Greene,male,2001-03-15 06:59:00,0.0,0.0,0.0,2.0,76.0,21.0,22.0,24.0,206.0,909.0,43.0,46.0,56.0,97.0,86.0,0.1940866905680224,2015.0,,38.74796427900333,-9.161079643615508,0,22,6.0,1478.0,246.3333333333333,0,0,0
24229,Bradley Hamilton,male,1999-07-23 06:52:00,0.0,0.0,0.0,2.0,120.0,19.0,23.0,31.0,204.0,918.0,47.0,53.0,50.0,101.0,63.0,0.2004125672196236,2017.0,,38.6613222767017,-9.199225134119636,0,24,4.0,1543.0,385.75,0,0,0
1772,Brandon Pettengill,male,2000-04-12 01:45:00,0.0,0.0,0.0,2.0,99.0,18.0,22.0,28.0,193.0,873.0,52.0,51.0,50.0,101.0,102.0,0.2041996838738692,2019.0,,38.739852644914,-9.155881000666335,0,23,2.0,1465.0,732.5,0,0,0
26335,Earl Westmoreland,male,2001-01-01 04:09:00,0.0,0.0,0.0,2.0,115.0,23.0,22.0,28.0,188.0,939.0,46.0,45.0,53.0,100.0,83.0,0.2022400588279946,2018.0,,38.73598279805646,-9.160517589251988,0,22,3.0,1537.0,512.3333333333334,0,0,0
7221,Allan Winter,male,1999-09-27 10:47:00,0.0,0.0,0.0,2.0,81.0,21.0,23.0,15.0,209.0,870.0,49.0,48.0,50.0,91.0,95.0,0.2000028390129618,2015.0,,38.75287262537733,-9.171998950673524,0,24,6.0,1434.0,239.0,0,0,0
3256,James Mccallister,male,2000-01-14 07:39:00,1.0,0.0,0.0,2.0,109.0,21.0,22.0,19.0,205.0,845.0,51.0,49.0,39.0,98.0,73.0,0.199081281640681,2018.0,,38.75488891365017,-9.164162034170944,0,23,3.0,1436.0,478.6666666666667,0,0,0
13276,Nancy Nelson,female,2001-12-12 11:51:00,0.0,0.0,0.0,2.0,107.0,18.0,20.0,19.0,197.0,869.0,50.0,47.0,51.0,102.0,82.0,0.1986755100300474,2014.0,,38.74963684804825,-9.15533222864096,0,22,7.0,1460.0,208.57142857142856,0,0,0
12697,Matthew Murray,male,1999-10-22 03:57:00,0.0,0.0,0.0,2.0,93.0,22.0,21.0,22.0,205.0,904.0,48.0,45.0,54.0,102.0,79.0,0.2036550530249924,2013.0,,38.66326236390456,-9.203909371441403,0,24,8.0,1495.0,186.875,0,0,0
236,Gary Scott,male,2001-12-21 01:22:00,0.0,0.0,0.0,2.0,122.0,22.0,21.0,22.0,213.0,955.0,44.0,44.0,42.0,102.0,102.0,0.2012389670409781,2019.0,921929.0,38.749182972848246,-9.158355133625474,0,22,2.0,1566.0,783.0,0,0,0
6442,Mary Gluck,female,1999-03-24 09:00:00,0.0,0.0,0.0,2.0,102.0,21.0,22.0,24.0,208.0,925.0,50.0,52.0,45.0,101.0,97.0,0.1944355240901395,2015.0,,38.748097910388005,-9.159652742820631,0,24,6.0,1528.0,254.66666666666663,0,0,0
28687,Sarah Mollette,female,2000-05-23 07:10:00,0.0,0.0,0.0,2.0,82.0,19.0,23.0,17.0,204.0,884.0,50.0,43.0,56.0,101.0,80.0,0.1982275188965972,2017.0,,38.75523028505437,-9.166233749556303,0,23,4.0,1456.0,364.0,0,0,0
9627,Aaron Nguyen,male,2000-01-30 06:06:00,0.0,0.0,0.0,2.0,91.0,18.0,22.0,27.0,198.0,894.0,55.0,51.0,49.0,102.0,66.0,0.1934412034696643,2018.0,,38.66833398204476,-9.198895685234838,0,23,3.0,1485.0,495.0,0,0,0
12619,Ginger Mcgee,female,2000-07-26 05:50:00,0.0,0.0,0.0,2.0,100.0,19.0,21.0,20.0,195.0,845.0,57.0,57.0,51.0,107.0,80.0,0.198612069340143,2020.0,,38.74960352006197,-9.163908238150457,0,23,1.0,1451.0,1451.0,0,0,0
26607,Delores Bond,female,1999-08-22 10:04:00,0.0,0.0,0.0,2.0,112.0,20.0,22.0,21.0,208.0,824.0,50.0,50.0,42.0,97.0,55.0,0.1997864268959043,2019.0,,38.65880711100027,-9.21068690903429,0,24,2.0,1424.0,712.0,0,0,0
6161,Joann Seale,female,2000-05-07 03:54:00,0.0,0.0,0.0,2.0,84.0,19.0,23.0,18.0,194.0,892.0,55.0,51.0,46.0,109.0,71.0,0.2026380362019046,2019.0,,38.75213232131864,-9.1596412681021,0,23,2.0,1468.0,734.0,0,0,0
19824,Thomas Mcnair,male,2001-06-23 09:48:00,0.0,0.0,0.0,2.0,102.0,20.0,21.0,17.0,201.0,874.0,54.0,46.0,57.0,95.0,68.0,0.2022409020095292,2020.0,,38.75453349981593,-9.16540492461372,0,22,1.0,1466.0,1466.0,0,0,0
2795,Judith Goodrow,female,1999-09-14 03:36:00,0.0,0.0,0.0,2.0,86.0,16.0,21.0,18.0,207.0,954.0,57.0,51.0,56.0,107.0,72.0,0.1886745649628498,2016.0,,38.75074125174702,-9.161918816844228,0,24,5.0,1552.0,310.4,0,0,0
26264,Roger Walker,male,1999-11-11 04:44:00,0.0,0.0,0.0,2.0,112.0,18.0,22.0,11.0,211.0,940.0,44.0,48.0,47.0,108.0,79.0,0.1968229887564004,2016.0,,38.73417534783973,-9.158889851937236,0,24,5.0,1539.0,307.8,0,0,0
23490,Dan Prince,male,2000-11-06 10:48:00,0.0,0.0,0.0,2.0,108.0,20.0,21.0,22.0,200.0,950.0,49.0,53.0,53.0,100.0,69.0,0.1918009460774533,2019.0,,38.73604541947097,-9.156904334766592,0,23,2.0,1555.0,777.5,0,0,0
8156,Dorothy Kerby,female,2001-11-26 12:32:00,0.0,0.0,0.0,2.0,99.0,21.0,23.0,20.0,195.0,926.0,50.0,48.0,57.0,101.0,79.0,0.2006131544507376,2013.0,,38.72969735083296,-9.153975156010295,0,22,8.0,1517.0,189.625,0,0,0
7623,Melvin Underdown,male,1999-09-04 08:17:00,0.0,0.0,0.0,2.0,83.0,22.0,23.0,28.0,198.0,935.0,49.0,44.0,46.0,96.0,72.0,0.1933459025696955,2015.0,,38.75572464689449,-9.160788104915742,0,24,6.0,1501.0,250.16666666666663,0,0,0
7574,Terese Bailey,female,1999-09-20 01:06:00,0.0,0.0,0.0,2.0,107.0,25.0,22.0,13.0,181.0,859.0,56.0,48.0,54.0,100.0,77.0,0.1996056883284656,2015.0,,38.65911131653892,-9.210700454591176,0,24,6.0,1443.0,240.5,0,0,0
6383,Jon Parm,male,2001-12-05 12:55:00,0.0,0.0,0.0,2.0,114.0,21.0,21.0,11.0,190.0,922.0,52.0,47.0,55.0,98.0,84.0,0.1921660751159812,2017.0,,38.7495882736099,-9.158818092286618,0,22,4.0,1510.0,377.5,0,0,0
4353,Edward Ruiz,male,2001-05-30 12:24:00,0.0,0.0,0.0,2.0,101.0,19.0,21.0,19.0,209.0,886.0,45.0,50.0,58.0,98.0,100.0,0.2062847566153383,2019.0,,38.65531116527344,-9.21190184281488,0,22,2.0,1485.0,742.5,0,0,0
29696,Len Childers,male,1999-10-23 02:59:00,0.0,0.0,0.0,2.0,103.0,21.0,22.0,17.0,192.0,970.0,50.0,55.0,51.0,104.0,78.0,0.1883562644741094,2017.0,,38.72572606541592,-9.155905851309775,0,24,4.0,1563.0,390.75,0,0,0
22406,Susan Whittlesey,female,2001-07-24 10:22:00,0.0,0.0,0.0,2.0,56.0,19.0,23.0,19.0,210.0,842.0,42.0,48.0,53.0,104.0,70.0,0.1915862750306345,2016.0,,38.748980388298506,-9.167755651306909,0,22,5.0,1393.0,278.6,0,0,0
6393,David Saddler,male,2001-11-24 11:56:00,0.0,0.0,0.0,2.0,98.0,18.0,22.0,22.0,191.0,913.0,36.0,54.0,48.0,97.0,81.0,0.1987671774421736,2015.0,,38.75230985475141,-9.164527859998469,0,22,6.0,1477.0,246.16666666666663,0,0,0
13119,Sean Sherry,male,2001-06-30 07:36:00,0.0,0.0,0.0,2.0,124.0,18.0,21.0,27.0,209.0,906.0,43.0,54.0,46.0,100.0,75.0,0.1975835776330646,2016.0,,38.664683478427314,-9.207130717197929,0,22,5.0,1527.0,305.4,0,0,0
12131,Orlando Caron,male,1999-11-19 08:57:00,0.0,0.0,0.0,2.0,126.0,22.0,23.0,22.0,188.0,812.0,60.0,47.0,47.0,105.0,104.0,0.2032211365566232,2015.0,,38.74695939367766,-9.170040978023511,0,24,6.0,1429.0,238.16666666666663,0,0,0
21631,Franklin Laigo,male,2001-08-05 02:31:00,1.0,0.0,0.0,2.0,61.0,19.0,22.0,15.0,213.0,934.0,45.0,51.0,55.0,102.0,82.0,0.1880589110119306,2016.0,,38.7523717755014,-9.162399543181312,0,22,5.0,1495.0,299.0,0,0,0
21941,Sherri Fisher,female,2001-09-05 05:56:00,0.0,0.0,0.0,2.0,99.0,19.0,22.0,19.0,203.0,829.0,49.0,45.0,48.0,100.0,85.0,0.1999578494551602,2020.0,,38.731423808617045,-9.168057693155813,0,22,1.0,1411.0,1411.0,0,0,0
24185,Freddie Rising,male,2000-12-06 09:36:00,0.0,0.0,0.0,2.0,107.0,20.0,23.0,18.0,208.0,875.0,40.0,46.0,60.0,101.0,60.0,0.2036344844986671,2020.0,,38.75559913451734,-9.1586500109142,0,23,1.0,1475.0,1475.0,0,0,0
2987,Armando Glennon,male,2000-07-12 01:25:00,0.0,0.0,0.0,2.0,89.0,21.0,22.0,13.0,197.0,859.0,52.0,50.0,45.0,104.0,88.0,0.190485914677227,2020.0,,38.6620787595586,-9.209952615754364,0,23,1.0,1430.0,1430.0,0,0,0
22737,James Hardy,male,1999-07-23 06:53:00,0.0,0.0,0.0,2.0,113.0,20.0,21.0,9.0,195.0,907.0,56.0,47.0,51.0,109.0,65.0,0.1999821344292421,2014.0,,38.74214760072059,-9.162734530886922,0,24,7.0,1507.0,215.28571428571428,0,0,0
7181,Heather Florence,female,2000-03-12 01:18:00,0.0,0.0,0.0,2.0,117.0,16.0,22.0,15.0,209.0,820.0,54.0,53.0,47.0,103.0,66.0,0.2074990805783677,2018.0,,38.743955220590415,-9.168970440942177,0,23,3.0,1434.0,478.0,0,0,0
12257,Barbara Collier,female,2000-07-29 04:52:00,0.0,0.0,0.0,2.0,79.0,18.0,21.0,24.0,203.0,810.0,44.0,46.0,48.0,92.0,68.0,0.203135348888446,2015.0,,38.7343874266277,-9.159070549557716,0,23,6.0,1364.0,227.3333333333333,0,0,0
27440,Jim Workman,male,2000-05-23 11:17:00,0.0,0.0,0.0,2.0,134.0,24.0,22.0,19.0,219.0,919.0,52.0,47.0,50.0,107.0,75.0,0.1965215755678991,2016.0,,38.75612957212044,-9.15329028766232,0,23,5.0,1571.0,314.2,0,0,0
19263,Louis Berry,male,1999-11-26 06:54:00,0.0,0.0,0.0,2.0,89.0,20.0,23.0,21.0,206.0,936.0,39.0,47.0,49.0,94.0,77.0,0.2044676372932716,2018.0,,38.667368996693845,-9.205895995151325,0,24,3.0,1501.0,500.3333333333333,0,0,0
27421,James Holder,male,2001-10-03 12:44:00,0.0,0.0,0.0,2.0,93.0,18.0,18.0,29.0,206.0,859.0,55.0,51.0,44.0,97.0,76.0,0.2097412033399321,2019.0,,38.74690669760477,-9.17042661500252,0,22,2.0,1452.0,726.0,0,0,0
7374,Eric Baggett,male,2001-10-24 03:19:00,0.0,0.0,0.0,2.0,97.0,18.0,21.0,34.0,202.0,1026.0,50.0,41.0,59.0,107.0,83.0,0.2025564249496955,2013.0,,38.72643970054202,-9.157941818889176,0,22,8.0,1634.0,204.25,0,0,0
9221,Blaine Holmquist,male,2001-01-26 04:34:00,0.0,0.0,0.0,2.0,86.0,17.0,22.0,22.0,212.0,998.0,52.0,54.0,53.0,90.0,86.0,0.194907081011657,2014.0,,38.74542102729821,-9.163105332523708,0,22,7.0,1584.0,226.28571428571428,0,0,0
17453,Joan Smith,female,2000-12-24 06:04:00,0.0,0.0,0.0,2.0,84.0,23.0,23.0,25.0,185.0,906.0,46.0,47.0,41.0,88.0,80.0,0.201895736796236,2018.0,,38.7590401511331,-9.158794896153635,0,23,3.0,1445.0,481.6666666666667,0,0,0
19141,Alfred Hoover,male,1999-08-06 11:57:00,0.0,0.0,0.0,2.0,99.0,21.0,21.0,21.0,207.0,921.0,53.0,46.0,36.0,103.0,84.0,0.2093635179155759,2018.0,,38.72675912020024,-9.165396704474624,0,24,3.0,1507.0,502.3333333333333,0,0,0
19939,Marilyn Sherman,female,1999-07-18 08:53:00,0.0,0.0,0.0,2.0,100.0,19.0,22.0,17.0,193.0,834.0,47.0,46.0,53.0,95.0,95.0,0.2016151942372316,2020.0,,38.73496878885725,-9.167021113044944,0,24,1.0,1404.0,1404.0,0,0,0
29038,Dixie Nozum,female,2000-12-26 04:07:00,0.0,0.0,0.0,2.0,93.0,24.0,18.0,14.0,212.0,864.0,50.0,46.0,54.0,102.0,93.0,0.1960190504380433,2016.0,,38.73830654900048,-9.167757697938583,0,23,5.0,1459.0,291.8,0,0,0
14805,Don Rikard,male,2000-10-05 10:44:00,0.0,0.0,0.0,2.0,93.0,15.0,23.0,25.0,181.0,943.0,50.0,48.0,48.0,93.0,71.0,0.2000272532454204,2015.0,,38.66109701865814,-9.212529499478247,0,23,6.0,1496.0,249.3333333333333,0,0,0
28509,Larry Liggett,male,1999-03-28 06:18:00,0.0,0.0,0.0,2.0,66.0,19.0,23.0,17.0,189.0,862.0,45.0,47.0,51.0,89.0,74.0,0.2046255758750875,2019.0,,38.72838621982882,-9.163733816877857,0,24,2.0,1385.0,692.5,0,0,0
6547,Jennifer Kibbe,female,2001-12-21 01:34:00,0.0,0.0,0.0,2.0,102.0,19.0,21.0,33.0,204.0,990.0,55.0,50.0,51.0,102.0,78.0,0.2044374730005529,2015.0,,38.72504507129475,-9.162259444685304,0,22,6.0,1606.0,267.6666666666667,0,0,0
10885,George Rabinowitz,male,2001-10-09 01:45:00,0.0,0.0,0.0,2.0,93.0,19.0,23.0,24.0,205.0,880.0,49.0,50.0,50.0,106.0,84.0,0.2086135163572111,2016.0,,38.75019310407376,-9.151679173201677,0,22,5.0,1476.0,295.2,0,0,0
16574,Ernest Vaughn,male,2001-07-19 10:11:00,0.0,0.0,0.0,2.0,97.0,18.0,21.0,12.0,202.0,860.0,50.0,47.0,48.0,100.0,80.0,0.1972971851607008,2018.0,,38.74517616574958,-9.15607895805124,0,22,3.0,1434.0,478.0,0,0,0
1703,Kara Holmes,female,2001-10-31 09:04:00,0.0,0.0,0.0,2.0,126.0,23.0,22.0,21.0,199.0,911.0,46.0,44.0,41.0,105.0,81.0,0.2005374748123297,2020.0,,38.75153264266984,-9.152524791347725,0,22,1.0,1516.0,1516.0,0,0,0
10523,Omar Polowy,male,1999-12-15 06:50:00,0.0,0.0,0.0,2.0,96.0,20.0,23.0,18.0,196.0,880.0,55.0,62.0,46.0,101.0,79.0,0.1953004465502258,2016.0,,38.66771814292481,-9.208959132311156,0,24,5.0,1474.0,294.8,0,0,0
3778,Elias Wheaton,male,2000-02-28 10:39:00,0.0,0.0,0.0,2.0,125.0,22.0,23.0,23.0,191.0,896.0,53.0,50.0,54.0,111.0,98.0,0.1973398822854597,2018.0,,38.75658284280538,-9.16350791396307,0,23,3.0,1525.0,508.3333333333333,0,0,0
26081,Vicki Lowin,female,1999-03-18 01:33:00,0.0,0.0,0.0,2.0,131.0,21.0,22.0,24.0,187.0,918.0,45.0,53.0,46.0,95.0,78.0,0.1994911707120624,2018.0,,38.72894343002281,-9.160748986255484,0,24,3.0,1520.0,506.6666666666667,0,0,0
7002,Linda Muncy,female,2001-10-07 10:12:00,0.0,0.0,0.0,2.0,96.0,22.0,23.0,19.0,212.0,798.0,51.0,52.0,47.0,101.0,85.0,0.1981902882739767,2018.0,,38.73972480136079,-9.15388192992553,0,22,3.0,1398.0,466.0,0,0,0
7459,Derrick Mcclain,male,1999-05-25 07:14:00,0.0,0.0,0.0,2.0,95.0,19.0,21.0,13.0,208.0,859.0,43.0,49.0,48.0,94.0,75.0,0.2006236584982828,2019.0,,38.73188859970536,-9.16003469703531,0,24,2.0,1428.0,714.0,0,0,0
22076,Amanda Hankins,female,2001-12-04 02:16:00,0.0,0.0,0.0,2.0,111.0,18.0,22.0,21.0,207.0,900.0,41.0,45.0,52.0,99.0,69.0,0.1859639105813807,2017.0,,38.753117960202935,-9.168086616178996,0,22,4.0,1494.0,373.5,0,0,0
6908,Lisa Redfern,female,2002-01-01 05:21:00,0.0,0.0,0.0,2.0,111.0,20.0,18.0,20.0,188.0,818.0,48.0,56.0,56.0,105.0,84.0,0.2011974692554435,2020.0,,38.73896028928708,-9.159839676996182,0,21,1.0,1422.0,1422.0,0,0,0
13927,Elizabeth Albaladejo,female,2000-09-17 10:57:00,0.0,0.0,0.0,2.0,110.0,18.0,23.0,17.0,171.0,888.0,42.0,46.0,48.0,112.0,70.0,0.203336341030534,2016.0,,38.65344958941076,-9.19855288815673,0,23,5.0,1452.0,290.4,0,0,0
23790,Jennifer Dyer,female,1999-05-08 12:00:00,0.0,0.0,0.0,2.0,122.0,22.0,21.0,15.0,212.0,882.0,52.0,50.0,45.0,95.0,72.0,0.2023698387545897,2019.0,,38.65754679546208,-9.213013064707578,0,24,2.0,1495.0,747.5,0,0,0
6135,Candice Emilio,female,2001-12-23 07:56:00,0.0,0.0,0.0,2.0,125.0,20.0,23.0,24.0,212.0,866.0,45.0,51.0,49.0,104.0,82.0,0.1997550780879649,2020.0,,38.65346082800616,-9.20313499966711,0,22,1.0,1496.0,1496.0,0,0,0
15502,Charlotte Reed,female,1999-05-24 02:42:00,0.0,0.0,0.0,2.0,60.0,19.0,22.0,18.0,194.0,824.0,48.0,52.0,58.0,93.0,67.0,0.1954473536812066,2017.0,,38.7393154994498,-9.166793696645575,0,24,4.0,1366.0,341.5,0,0,0
18938,Brian Bristol,male,1999-09-14 04:40:00,0.0,0.0,0.0,2.0,90.0,22.0,21.0,18.0,219.0,876.0,49.0,59.0,50.0,101.0,78.0,0.2054067530094509,2019.0,,38.72662105762977,-9.161669749679534,0,24,2.0,1484.0,742.0,0,0,0
18058,John Ross,male,1999-06-25 08:20:00,0.0,0.0,0.0,2.0,68.0,26.0,18.0,27.0,203.0,789.0,44.0,46.0,51.0,99.0,76.0,0.1967533435721522,2018.0,,38.74696125600001,-9.165543629635584,0,24,3.0,1353.0,451.0,0,0,0
27956,Donald Carson,male,2001-03-12 06:11:00,0.0,0.0,0.0,2.0,76.0,21.0,23.0,21.0,183.0,859.0,55.0,54.0,50.0,98.0,83.0,0.196650858025687,2018.0,,38.75278796684844,-9.160992780017448,0,22,3.0,1417.0,472.3333333333333,0,0,0
4980,Brandy Locorriere,female,2001-07-16 11:15:00,0.0,0.0,0.0,2.0,104.0,21.0,22.0,14.0,200.0,909.0,49.0,45.0,60.0,104.0,84.0,0.1981332866695478,2014.0,,38.662226746713486,-9.210628609012486,0,22,7.0,1506.0,215.1428571428572,0,0,0
22777,Amy Wilson,female,1999-09-05 08:56:00,0.0,0.0,0.0,2.0,82.0,18.0,21.0,21.0,222.0,860.0,55.0,45.0,52.0,102.0,61.0,0.1992365064917114,2017.0,,38.665058992684976,-9.20122819189482,0,24,4.0,1457.0,364.25,0,0,0
27725,Denise Baum,female,2000-06-06 04:21:00,0.0,0.0,0.0,2.0,118.0,22.0,22.0,20.0,191.0,852.0,46.0,45.0,47.0,98.0,78.0,0.2025304695018145,2016.0,,38.72904632579698,-9.15322003644118,0,23,5.0,1439.0,287.8,0,0,0
23079,Richard Fischl,male,1999-02-26 01:02:00,0.0,0.0,0.0,2.0,128.0,21.0,23.0,15.0,205.0,880.0,45.0,47.0,43.0,97.0,84.0,0.1952714352504434,2018.0,,38.66676335316128,-9.21246366770414,0,24,3.0,1481.0,493.6666666666667,0,0,0
2636,Donna Rosenthal,female,1999-03-05 01:56:00,0.0,0.0,0.0,2.0,81.0,24.0,23.0,18.0,203.0,921.0,58.0,53.0,42.0,99.0,95.0,0.1945953127835114,2016.0,,38.73715556303564,-9.15782359222092,0,24,5.0,1499.0,299.8,0,0,0
4460,Virginia Burleson,female,2001-04-22 07:08:00,0.0,0.0,0.0,2.0,118.0,19.0,20.0,24.0,211.0,847.0,50.0,55.0,59.0,105.0,72.0,0.1993378190891697,2016.0,,38.73598348783504,-9.160539809442335,0,22,5.0,1488.0,297.6,0,0,0
9317,Monica Vail,female,2000-04-06 03:40:00,0.0,0.0,0.0,2.0,93.0,18.0,21.0,28.0,210.0,970.0,49.0,41.0,58.0,103.0,87.0,0.2054882579301165,2020.0,,38.74475822725889,-9.172777029758034,0,23,1.0,1570.0,1570.0,0,0,0
2810,Doris Easter,female,1999-01-27 02:21:00,0.0,0.0,0.0,2.0,104.0,20.0,22.0,17.0,186.0,926.0,55.0,57.0,47.0,95.0,93.0,0.1979170343289081,2016.0,,38.75585349978351,-9.153960934917755,0,24,5.0,1507.0,301.4,0,0,0
19101,Chet Williams,male,2001-02-14 11:09:00,0.0,0.0,0.0,2.0,71.0,19.0,23.0,35.0,212.0,893.0,54.0,42.0,46.0,106.0,63.0,0.2005075672055126,2020.0,,38.75407943532529,-9.161262124811085,0,22,1.0,1478.0,1478.0,0,0,0
24178,Adena Brink,female,2001-04-11 01:19:00,0.0,0.0,0.0,2.0,91.0,19.0,21.0,20.0,183.0,988.0,34.0,43.0,58.0,99.0,74.0,0.2054381605197423,2012.0,,38.75656594047565,-9.165315820647203,0,22,9.0,1535.0,170.55555555555554,0,0,0
24467,Margie Schuchart,female,2001-10-09 01:33:00,0.0,0.0,0.0,2.0,112.0,19.0,21.0,26.0,200.0,981.0,52.0,40.0,49.0,101.0,84.0,0.1989742689715116,2017.0,,38.75195297774559,-9.15661115689294,0,22,4.0,1580.0,395.0,0,0,0
5837,Dianne Baker,female,2001-11-29 12:29:00,0.0,0.0,0.0,2.0,110.0,19.0,20.0,14.0,203.0,971.0,48.0,59.0,56.0,100.0,75.0,0.1979078718523941,2012.0,,38.7520399586544,-9.155527997333438,0,22,9.0,1580.0,175.55555555555554,0,0,0
15352,Jacqueline Wilson,female,1999-04-24 06:14:00,0.0,0.0,0.0,2.0,107.0,20.0,23.0,21.0,190.0,972.0,55.0,54.0,40.0,96.0,87.0,0.200312875246309,2017.0,,38.72701006947606,-9.154333937831357,0,24,4.0,1555.0,388.75,0,0,0
6017,Henry Mclaughlin,male,2001-11-27 02:12:00,0.0,0.0,0.0,2.0,86.0,20.0,20.0,12.0,200.0,900.0,54.0,54.0,50.0,104.0,88.0,0.1971172827763711,2017.0,,38.75892708459797,-9.166041852335884,0,22,4.0,1480.0,370.0,0,0,0
29206,Mark Beale,male,2001-09-28 08:47:00,0.0,0.0,0.0,2.0,109.0,23.0,23.0,27.0,208.0,853.0,50.0,46.0,49.0,100.0,84.0,0.1935254871022566,2017.0,,38.72924433121504,-9.154882529603178,0,22,4.0,1465.0,366.25,0,0,0
19565,Kristin Nguyen,female,2000-03-20 06:45:00,0.0,0.0,0.0,2.0,92.0,19.0,23.0,18.0,200.0,927.0,53.0,59.0,52.0,103.0,99.0,0.1922974648167076,2013.0,,38.75617173877951,-9.161857164452243,0,23,8.0,1523.0,190.375,0,0,0
28898,Chad Crank,male,2000-02-16 05:56:00,0.0,0.0,0.0,2.0,124.0,22.0,22.0,20.0,198.0,943.0,43.0,49.0,46.0,100.0,81.0,0.1980054856606259,2018.0,,38.739021190691794,-9.153542981425971,0,23,3.0,1545.0,515.0,0,0,0
23001,Marvin Carver,male,1999-07-07 04:25:00,0.0,0.0,0.0,2.0,120.0,18.0,22.0,13.0,211.0,902.0,51.0,43.0,57.0,104.0,102.0,0.1964888319509092,2014.0,,38.75310030245923,-9.153214824710457,0,24,7.0,1519.0,217.0,0,0,0
19495,David Long,male,1999-07-13 01:12:00,0.0,0.0,0.0,2.0,122.0,21.0,18.0,14.0,193.0,937.0,46.0,51.0,57.0,99.0,84.0,0.209413202240969,2019.0,,38.75000565407151,-9.168857589472251,0,24,2.0,1540.0,770.0,0,0,0
15475,Debra Guyer,female,2001-01-21 10:12:00,0.0,0.0,0.0,2.0,98.0,21.0,21.0,15.0,197.0,934.0,49.0,42.0,45.0,94.0,70.0,0.1945489445325471,2017.0,,38.66811929687554,-9.20169356121615,0,22,4.0,1495.0,373.75,0,0,0
9715,Myrtle Duggan,female,1999-12-01 02:53:00,0.0,0.0,0.0,2.0,104.0,21.0,22.0,20.0,204.0,867.0,52.0,41.0,53.0,101.0,62.0,0.199013611466328,2017.0,,38.66716952433791,-9.21091172952596,0,24,4.0,1463.0,365.75,0,0,0
14651,Clifford Tillman,male,1999-01-20 12:15:00,0.0,0.0,0.0,2.0,91.0,21.0,19.0,19.0,198.0,900.0,39.0,54.0,47.0,101.0,69.0,0.1930990122592822,2020.0,,38.65430037884805,-9.208896469148652,0,24,1.0,1470.0,1470.0,0,0,0
3843,Larry Bradley,male,2000-11-02 03:15:00,0.0,0.0,0.0,2.0,118.0,19.0,21.0,24.0,197.0,934.0,57.0,55.0,49.0,92.0,85.0,0.1960066802744487,2017.0,,38.7496564747521,-9.16270468183446,0,23,4.0,1545.0,386.25,0,0,0
29851,Cynthia Miranda,female,2000-11-06 03:41:00,0.0,0.0,0.0,2.0,87.0,22.0,22.0,24.0,198.0,915.0,47.0,49.0,44.0,97.0,78.0,0.1981229661111365,2016.0,,38.74543908918203,-9.168779093632033,0,23,5.0,1483.0,296.6,0,0,0
18567,Michael Holland,male,1999-10-14 12:15:00,0.0,0.0,0.0,2.0,127.0,19.0,22.0,18.0,198.0,943.0,49.0,47.0,55.0,101.0,59.0,0.2008788830286255,2017.0,,38.75232976608642,-9.166978969600052,0,24,4.0,1557.0,389.25,0,0,0
3730,Suzanne Gale,female,2001-04-16 10:03:00,0.0,0.0,0.0,2.0,115.0,18.0,22.0,26.0,211.0,949.0,66.0,55.0,53.0,97.0,80.0,0.2128210172598691,2020.0,,38.73102207969981,-9.159664713615063,0,22,1.0,1590.0,1590.0,0,0,0
18423,Benjamin Mason,male,1999-11-24 02:36:00,0.0,0.0,0.0,2.0,89.0,17.0,23.0,17.0,197.0,850.0,48.0,40.0,42.0,97.0,73.0,0.2088399805608349,2016.0,,38.75105295831305,-9.170215839352483,0,24,5.0,1397.0,279.4,0,0,0
12679,Tina Brinda,female,2000-03-16 03:09:00,0.0,0.0,0.0,2.0,103.0,19.0,22.0,21.0,194.0,851.0,45.0,51.0,47.0,104.0,86.0,0.1993691756834153,2018.0,,38.72654471501614,-9.161951804303152,0,23,3.0,1435.0,478.3333333333333,0,0,0
9681,Cody Mangiafico,female,2000-10-14 04:36:00,0.0,0.0,0.0,2.0,79.0,24.0,22.0,13.0,197.0,918.0,46.0,37.0,55.0,95.0,87.0,0.1990174746831028,2018.0,,38.747094897677,-9.156815184626952,0,23,3.0,1464.0,488.0,0,0,0
27186,Tierra Baird,female,2000-08-11 07:22:00,0.0,0.0,0.0,2.0,102.0,19.0,21.0,22.0,205.0,935.0,52.0,42.0,51.0,94.0,79.0,0.2023861649034381,2018.0,,38.74703935341379,-9.173193515841174,0,23,3.0,1522.0,507.3333333333333,0,0,0
21402,Jonathan Pasquale,male,2000-04-05 05:45:00,0.0,0.0,0.0,2.0,82.0,19.0,22.0,28.0,205.0,929.0,51.0,46.0,50.0,93.0,82.0,0.203905404403956,2020.0,,38.74684491408061,-9.166491856721445,0,23,1.0,1503.0,1503.0,0,0,0
7629,Genaro Miller,male,2000-06-30 10:13:00,0.0,0.0,0.0,2.0,91.0,21.0,23.0,22.0,216.0,885.0,40.0,57.0,45.0,105.0,94.0,0.200312383087419,2019.0,,38.73843475311816,-9.155801845704,0,23,2.0,1482.0,741.0,0,0,0
8396,Eric Archey,male,2001-05-01 03:58:00,0.0,0.0,0.0,2.0,117.0,21.0,22.0,26.0,195.0,845.0,52.0,51.0,50.0,108.0,63.0,0.1924706154459657,2020.0,,38.7365891923697,-9.167391499910666,0,22,1.0,1465.0,1465.0,0,0,0
4184,Donald Schuch,male,2000-11-02 05:03:00,0.0,0.0,0.0,2.0,95.0,19.0,22.0,19.0,191.0,848.0,47.0,49.0,47.0,98.0,58.0,0.200007963293263,2018.0,,38.75260194406727,-9.153058101204516,0,23,3.0,1413.0,471.0,0,0,0
28468,Jacqueline Pearcy,female,2001-09-12 03:25:00,0.0,0.0,0.0,2.0,92.0,21.0,23.0,14.0,199.0,998.0,56.0,56.0,51.0,103.0,87.0,0.1989105205401959,2016.0,,38.74457121091608,-9.152716555400158,0,22,5.0,1590.0,318.0,0,0,0
17335,Deborah Wilson,female,2001-01-17 08:56:00,0.0,0.0,0.0,2.0,128.0,20.0,21.0,18.0,182.0,882.0,45.0,60.0,53.0,100.0,72.0,0.2015779519703444,2017.0,,38.73180827355697,-9.15475694623798,0,22,4.0,1488.0,372.0,0,0,0
19845,Joel Hyland,male,2000-07-22 01:06:00,0.0,0.0,0.0,2.0,137.0,18.0,22.0,22.0,186.0,894.0,49.0,51.0,49.0,104.0,61.0,0.2028547087974836,2020.0,,38.66100405255981,-9.199655982580682,0,23,1.0,1510.0,1510.0,0,0,0
7933,Catherine Gartrell,female,1999-12-07 02:08:00,0.0,0.0,0.0,2.0,105.0,19.0,23.0,27.0,210.0,924.0,52.0,50.0,48.0,98.0,72.0,0.2115469101645359,2017.0,,38.65853918521943,-9.203813015808503,0,24,4.0,1533.0,383.25,0,0,0
15443,Delores Serrano,female,2000-02-22 04:20:00,0.0,0.0,0.0,2.0,98.0,18.0,23.0,24.0,211.0,869.0,43.0,55.0,50.0,96.0,72.0,0.196474731597303,2014.0,,38.729293114634125,-9.162187286776057,0,23,7.0,1464.0,209.1428571428572,0,0,0
16036,Johnny Collins,male,2001-07-29 10:49:00,0.0,0.0,0.0,2.0,97.0,20.0,23.0,16.0,191.0,905.0,48.0,44.0,45.0,106.0,78.0,0.2023616057716808,2018.0,,38.65990362341206,-9.20226420899469,0,22,3.0,1472.0,490.6666666666667,0,0,0
1283,Cynthia Tarrant,female,1999-08-12 05:59:00,0.0,0.0,0.0,2.0,115.0,22.0,22.0,23.0,205.0,971.0,46.0,50.0,45.0,104.0,73.0,0.1927929338927518,2015.0,,38.72785980310685,-9.157290446073045,0,24,6.0,1581.0,263.5,0,0,0
12715,Michael Burns,male,2000-08-27 06:02:00,0.0,0.0,0.0,2.0,119.0,19.0,21.0,19.0,207.0,942.0,50.0,51.0,44.0,99.0,79.0,0.2085818404846596,2019.0,,38.75441219180286,-9.157579348213565,0,23,2.0,1550.0,775.0,0,0,0
6965,Ann Hayes,female,2001-11-15 05:35:00,0.0,0.0,0.0,2.0,156.0,19.0,21.0,20.0,189.0,970.0,53.0,56.0,59.0,94.0,70.0,0.1889742606517372,2020.0,,38.66537742914637,-9.199213610692777,0,22,1.0,1616.0,1616.0,0,0,0
9075,George Kim,male,2001-09-05 04:32:00,0.0,0.0,0.0,2.0,112.0,19.0,21.0,21.0,203.0,917.0,54.0,49.0,47.0,94.0,74.0,0.2054910526479141,2016.0,,38.75411112219699,-9.16737862786039,0,22,5.0,1516.0,303.2,0,0,0
666,Isaac Cogdill,male,1999-09-20 07:52:00,0.0,0.0,0.0,2.0,145.0,22.0,20.0,27.0,203.0,896.0,55.0,54.0,52.0,103.0,93.0,0.1923683347165623,2020.0,,38.758351067013805,-9.165843135173194,0,24,1.0,1557.0,1557.0,0,0,0
1843,John Conley,male,1999-09-13 12:59:00,0.0,0.0,0.0,2.0,92.0,22.0,22.0,18.0,197.0,954.0,49.0,53.0,51.0,92.0,99.0,0.2012813603694476,2019.0,,38.656087763976885,-9.208721917510722,0,24,2.0,1528.0,764.0,0,0,0
2371,Jimmie Scheulen,male,2001-03-23 02:21:00,0.0,0.0,0.0,2.0,83.0,20.0,21.0,28.0,212.0,900.0,50.0,44.0,54.0,97.0,85.0,0.2052556893848099,2020.0,,38.727281704116265,-9.166508861816288,0,22,1.0,1488.0,1488.0,0,0,0
14014,James Agin,male,2001-07-28 05:59:00,0.0,0.0,0.0,2.0,129.0,21.0,22.0,18.0,219.0,813.0,52.0,49.0,50.0,103.0,86.0,0.2031868771175132,2018.0,,38.65583951342869,-9.20719998024435,0,22,3.0,1454.0,484.6666666666667,0,0,0
19129,Louise Caballero,female,1999-07-01 03:24:00,0.0,0.0,0.0,2.0,89.0,18.0,22.0,20.0,208.0,873.0,42.0,48.0,52.0,95.0,68.0,0.2024079795156096,2020.0,,38.66467012723305,-9.2103225452975,0,24,1.0,1445.0,1445.0,0,0,0
20559,Virginia Davis,female,2001-12-23 04:14:00,0.0,0.0,0.0,2.0,107.0,24.0,23.0,27.0,222.0,876.0,58.0,43.0,46.0,98.0,87.0,0.2072243865933563,2020.0,,38.74025566252669,-9.158187798026244,0,22,1.0,1501.0,1501.0,0,0,0
25901,Robert Smith,male,1999-02-17 09:38:00,0.0,0.0,0.0,2.0,144.0,18.0,21.0,16.0,186.0,987.0,55.0,51.0,61.0,96.0,86.0,0.1999309480036551,2016.0,,38.65819449562193,-9.204072888130652,0,24,5.0,1614.0,322.8,0,0,0
4994,John Lewis,male,2001-04-05 05:53:00,0.0,0.0,0.0,2.0,115.0,24.0,22.0,14.0,207.0,784.0,51.0,44.0,47.0,106.0,71.0,0.1985832050357042,2017.0,,38.72543419135385,-9.16721122995222,0,22,4.0,1392.0,348.0,0,0,0
3428,Edward Covington,male,1999-10-12 09:37:00,0.0,0.0,0.0,2.0,103.0,22.0,22.0,14.0,205.0,933.0,52.0,50.0,43.0,102.0,78.0,0.2038530789581527,2013.0,,38.666515976042426,-9.20145710241918,0,24,8.0,1524.0,190.5,0,0,0
27712,Nicole Pickard,female,2000-07-14 09:30:00,0.0,0.0,0.0,2.0,117.0,20.0,22.0,22.0,181.0,863.0,53.0,52.0,62.0,105.0,95.0,0.2018599024727915,2015.0,,38.66137281437872,-9.198490047610097,0,23,6.0,1475.0,245.8333333333333,0,0,0
13261,Felix Kirtley,male,2000-07-03 01:33:00,0.0,0.0,0.0,2.0,126.0,18.0,21.0,18.0,204.0,893.0,43.0,56.0,48.0,103.0,88.0,0.1984295652033987,2018.0,,38.75850433443685,-9.16529374519745,0,23,3.0,1509.0,503.0,0,0,0
5429,Maricruz Newman,female,2000-10-15 07:11:00,0.0,0.0,0.0,2.0,105.0,21.0,21.0,19.0,211.0,938.0,48.0,45.0,51.0,97.0,76.0,0.1928590071946147,2017.0,,38.74513580677325,-9.15301652468906,0,23,4.0,1535.0,383.75,0,0,0
4226,Marsha Collins,female,2000-06-30 02:11:00,0.0,0.0,0.0,2.0,129.0,18.0,21.0,20.0,199.0,965.0,51.0,48.0,50.0,99.0,69.0,0.1938584798900386,2020.0,,38.66841329049765,-9.20699123545874,0,23,1.0,1579.0,1579.0,0,0,0
2808,Annie Klingbeil,female,2001-08-24 03:16:00,0.0,0.0,0.0,2.0,77.0,17.0,22.0,20.0,223.0,906.0,53.0,47.0,56.0,95.0,78.0,0.1909952121350424,2019.0,,38.750606641393794,-9.172441024257104,0,22,2.0,1494.0,747.0,0,0,0
2387,Scott Brock,male,2001-09-02 07:02:00,0.0,0.0,0.0,2.0,81.0,18.0,22.0,20.0,207.0,870.0,49.0,53.0,51.0,105.0,62.0,0.1963609374254009,2017.0,,38.753371943893264,-9.17307759462502,0,22,4.0,1454.0,363.5,0,0,0
15270,Anita Ramsey,female,2001-06-18 02:09:00,1.0,0.0,0.0,2.0,94.0,17.0,21.0,24.0,197.0,934.0,53.0,55.0,50.0,100.0,81.0,0.1990536421492124,2018.0,,38.667946595888445,-9.202831668325828,0,22,3.0,1524.0,508.0,0,0,0
9971,Suzanne Mccann,female,2000-12-29 03:51:00,0.0,0.0,0.0,2.0,114.0,19.0,22.0,25.0,212.0,927.0,50.0,47.0,48.0,109.0,92.0,0.2019962508478736,2017.0,,38.66071881068206,-9.20432875808458,0,23,4.0,1551.0,387.75,0,0,0
8014,Kara Westbrook,female,1999-05-14 01:07:00,0.0,0.0,0.0,2.0,89.0,22.0,22.0,20.0,180.0,945.0,47.0,47.0,46.0,88.0,84.0,0.1873758549539773,2016.0,,38.75470507774338,-9.17221914150922,0,24,5.0,1484.0,296.8,0,0,0
3109,Thomas Link,male,2001-01-01 06:38:00,0.0,0.0,0.0,2.0,106.0,19.0,23.0,27.0,205.0,1003.0,60.0,53.0,46.0,105.0,88.0,0.1993359521907937,2014.0,,38.731798691638815,-9.154914989735662,0,22,7.0,1624.0,232.0,0,0,0
17026,Jacob Carrizales,male,2001-01-02 09:14:00,0.0,0.0,0.0,2.0,119.0,18.0,22.0,31.0,209.0,936.0,53.0,49.0,50.0,107.0,86.0,0.1959390232437444,2019.0,,38.730074383258376,-9.166169380464142,0,22,2.0,1572.0,786.0,0,0,0
1293,Jacqueline Miller,female,1999-08-06 10:18:00,0.0,0.0,0.0,2.0,85.0,21.0,23.0,11.0,210.0,905.0,47.0,38.0,46.0,100.0,74.0,0.2034671726922124,2016.0,,38.74985834094104,-9.152465264281778,0,24,5.0,1463.0,292.6,0,0,0
12020,Francisco Gonzales,male,2000-10-20 05:14:00,0.0,0.0,0.0,2.0,111.0,19.0,21.0,20.0,201.0,848.0,47.0,61.0,51.0,98.0,67.0,0.205430303845939,2018.0,,38.75527078523906,-9.163237737795347,0,23,3.0,1456.0,485.3333333333333,0,0,0
26834,Michael Chesnut,male,1999-10-15 03:37:00,0.0,0.0,0.0,2.0,67.0,22.0,22.0,27.0,204.0,819.0,53.0,48.0,51.0,92.0,60.0,0.2048972118165163,2018.0,,38.66631132676118,-9.208395108993964,0,24,3.0,1383.0,461.0,0,0,0
11183,Mary Ward,female,2000-04-11 11:59:00,0.0,0.0,0.0,2.0,90.0,18.0,21.0,31.0,183.0,892.0,51.0,52.0,57.0,106.0,101.0,0.2012911167522258,2017.0,,38.725182687075225,-9.16044074101844,0,23,4.0,1480.0,370.0,0,0,0
14222,Robert Barker,male,1999-02-11 08:26:00,0.0,0.0,0.0,2.0,121.0,21.0,23.0,21.0,218.0,1048.0,50.0,46.0,56.0,100.0,57.0,0.2111813917149268,2015.0,,38.75449755634757,-9.151404992485748,0,24,6.0,1681.0,280.1666666666667,0,0,0
7548,Terry Shinn,male,2001-05-21 06:12:00,0.0,0.0,0.0,2.0,86.0,21.0,22.0,20.0,195.0,990.0,46.0,49.0,44.0,93.0,62.0,0.2067957180888467,2017.0,,38.74385892937427,-9.158486694304464,0,22,4.0,1544.0,386.0,0,0,0
2519,Melina Stellhorn,female,2000-10-01 11:44:00,0.0,0.0,0.0,2.0,80.0,20.0,21.0,24.0,195.0,866.0,59.0,51.0,47.0,98.0,68.0,0.2032340871026456,2017.0,,38.73382380489473,-9.165092281315074,0,23,4.0,1440.0,360.0,0,0,0
21861,Yolanda Welte,female,2001-12-20 06:30:00,0.0,0.0,0.0,2.0,85.0,17.0,22.0,16.0,191.0,886.0,59.0,42.0,50.0,98.0,72.0,0.1992944019758496,2020.0,,38.74360807740581,-9.16259331236682,0,22,1.0,1444.0,1444.0,0,0,0
13117,Matthew Wengel,male,1999-05-25 09:45:00,0.0,0.0,0.0,2.0,66.0,17.0,22.0,19.0,200.0,912.0,52.0,52.0,49.0,98.0,81.0,0.1960210522626569,2018.0,,38.72887000789602,-9.1597786831308,0,24,3.0,1465.0,488.3333333333333,0,0,0
18909,Larissa Mannion,female,2001-12-21 10:23:00,0.0,0.0,0.0,2.0,95.0,24.0,22.0,19.0,198.0,901.0,50.0,49.0,55.0,100.0,88.0,0.1972558959004691,2014.0,,38.74486103513476,-9.16789214518367,0,22,7.0,1491.0,213.0,0,0,0
15815,Richard Strauss,male,2001-09-30 06:33:00,0.0,0.0,0.0,2.0,80.0,19.0,22.0,22.0,208.0,801.0,54.0,49.0,45.0,101.0,65.0,0.1993298047999449,2015.0,,38.7563656130391,-9.164181608874785,0,22,6.0,1379.0,229.8333333333333,0,0,0
29826,Frederick Wheeler,male,1999-03-26 07:49:00,0.0,0.0,0.0,2.0,109.0,17.0,22.0,15.0,197.0,846.0,51.0,56.0,48.0,97.0,83.0,0.1957480032169232,2020.0,,38.75830573128356,-9.156845264683914,0,24,1.0,1436.0,1436.0,0,0,0
20156,Mark Morrison,male,2000-03-23 12:12:00,0.0,0.0,0.0,2.0,113.0,18.0,22.0,15.0,191.0,862.0,49.0,52.0,56.0,100.0,79.0,0.2028386415251444,2017.0,,38.74766767980969,-9.168141868930617,0,23,4.0,1456.0,364.0,0,0,0
16851,Madison Dorazio,female,2001-11-02 06:42:00,0.0,0.0,0.0,2.0,80.0,20.0,23.0,23.0,192.0,883.0,46.0,53.0,59.0,104.0,73.0,0.2025812309420871,2016.0,,38.755545785619965,-9.168378233091438,0,22,5.0,1460.0,292.0,0,0,0
14822,Maria Tinker,female,2001-01-03 10:00:00,0.0,0.0,0.0,2.0,119.0,19.0,21.0,27.0,222.0,1002.0,55.0,46.0,47.0,107.0,65.0,0.2031702789544627,2020.0,,38.74413038534952,-9.173358415390156,0,22,1.0,1644.0,1644.0,0,0,0
9825,Mardell Marson,female,2001-03-30 05:42:00,0.0,0.0,0.0,2.0,98.0,19.0,20.0,21.0,209.0,874.0,50.0,54.0,48.0,99.0,95.0,0.1924688655228581,2018.0,,38.733285689105,-9.154546168819667,0,22,3.0,1472.0,490.6666666666667,0,0,0
28630,Brian Garcia,male,2001-05-18 07:39:00,0.0,0.0,0.0,2.0,82.0,21.0,22.0,16.0,187.0,921.0,53.0,48.0,52.0,100.0,67.0,0.1997215542613495,2019.0,,38.75496116182989,-9.167251158591746,0,22,2.0,1480.0,740.0,0,0,0
29170,Nicholas Henry,male,2001-06-03 01:57:00,0.0,0.0,0.0,2.0,97.0,20.0,22.0,20.0,206.0,840.0,51.0,45.0,54.0,96.0,80.0,0.1961078220071336,2015.0,,38.745445277147226,-9.159245396010723,0,22,6.0,1429.0,238.16666666666663,0,0,0
8216,Mary Labadie,female,2000-05-13 09:59:00,0.0,0.0,0.0,2.0,114.0,20.0,22.0,15.0,204.0,935.0,46.0,50.0,48.0,101.0,76.0,0.2020130898014949,2013.0,,38.66465580358201,-9.212751423061944,0,23,8.0,1533.0,191.625,0,0,0
9352,Thomas Brown,male,1999-09-12 02:44:00,0.0,0.0,0.0,2.0,113.0,18.0,21.0,25.0,202.0,908.0,45.0,50.0,51.0,112.0,80.0,0.1991922838304435,2018.0,,38.72487122305168,-9.153985933246874,0,24,3.0,1524.0,508.0,0,0,0
4874,Jerry Strawn,male,1999-09-26 03:14:00,0.0,0.0,0.0,2.0,73.0,18.0,23.0,30.0,202.0,822.0,59.0,49.0,55.0,105.0,67.0,0.1990227108822229,2016.0,,38.66139653893454,-9.199172487865082,0,24,5.0,1413.0,282.6,0,0,0
459,Mason Feaster,male,2000-02-20 06:23:00,0.0,0.0,0.0,2.0,99.0,20.0,22.0,25.0,215.0,838.0,49.0,47.0,44.0,104.0,114.0,0.207088139799029,2016.0,971935.0,38.744678699154,-9.172795881905598,0,23,5.0,1441.0,288.2,0,0,0
2837,Rita Houser,female,2001-12-14 01:19:00,0.0,0.0,0.0,2.0,68.0,18.0,22.0,21.0,189.0,832.0,51.0,52.0,47.0,104.0,81.0,0.1966488192133773,2019.0,,38.65408099239205,-9.20092858119061,0,22,2.0,1382.0,691.0,0,0,0
23400,Scott Kelly,male,2000-09-26 10:52:00,0.0,0.0,0.0,2.0,97.0,18.0,23.0,29.0,199.0,862.0,55.0,53.0,53.0,102.0,67.0,0.1967569740039989,2017.0,,38.74156129135178,-9.16943361584478,0,23,4.0,1468.0,367.0,0,0,0
2856,Mary Boyer,female,1999-05-03 10:16:00,0.0,0.0,0.0,2.0,121.0,19.0,21.0,19.0,201.0,969.0,44.0,50.0,52.0,107.0,87.0,0.2040426930708004,2016.0,,38.75439169601388,-9.163424296540937,0,24,5.0,1582.0,316.4,0,0,0
525,Robert Caraballo,male,1999-11-12 08:18:00,0.0,0.0,0.0,2.0,68.0,15.0,22.0,18.0,198.0,828.0,51.0,47.0,50.0,96.0,75.0,0.1908170131916897,2017.0,,38.73496736957621,-9.164195403201246,0,24,4.0,1371.0,342.75,0,0,0
14790,Ivy Thiel,female,2000-05-15 07:26:00,0.0,0.0,0.0,2.0,85.0,21.0,23.0,5.0,204.0,921.0,50.0,47.0,41.0,98.0,84.0,0.1962227954618645,2019.0,,38.7258215803013,-9.155694006037711,0,23,2.0,1472.0,736.0,0,0,0
7340,Ruth Allen,female,2000-10-19 04:41:00,0.0,0.0,0.0,2.0,125.0,21.0,22.0,24.0,189.0,887.0,40.0,48.0,53.0,100.0,82.0,0.1974015015024715,2012.0,,38.73386219860061,-9.164896119172164,0,23,9.0,1487.0,165.22222222222223,0,0,0
2624,Jerry Hamlin,male,2001-03-20 01:15:00,0.0,0.0,0.0,2.0,139.0,18.0,23.0,25.0,197.0,965.0,45.0,46.0,55.0,98.0,63.0,0.2052748669391849,2016.0,,38.75763223634362,-9.157611985333816,0,22,5.0,1588.0,317.6,0,0,0
29167,Dallas Batts,male,2000-02-09 10:46:00,0.0,0.0,0.0,2.0,117.0,22.0,23.0,22.0,201.0,931.0,41.0,50.0,56.0,103.0,77.0,0.1992820979711008,2015.0,,38.75715811589061,-9.164741630448596,0,23,6.0,1543.0,257.1666666666667,0,0,0
29268,Linda Minshall,female,2001-02-06 01:09:00,0.0,0.0,0.0,2.0,101.0,21.0,18.0,22.0,197.0,960.0,53.0,50.0,48.0,98.0,105.0,0.1987789713028002,2018.0,,38.75778914471839,-9.151633802711132,0,22,3.0,1550.0,516.6666666666666,0,0,0
13852,Jesse Norwood,male,2000-12-23 08:56:00,0.0,0.0,0.0,2.0,111.0,22.0,21.0,23.0,203.0,941.0,50.0,51.0,51.0,93.0,80.0,0.2002988422590514,2017.0,,38.74945656889011,-9.15350969899073,0,23,4.0,1545.0,386.25,0,0,0
7687,Andrew Mitchell,male,1999-10-04 12:21:00,0.0,0.0,0.0,2.0,92.0,16.0,21.0,20.0,193.0,902.0,44.0,50.0,55.0,96.0,68.0,0.200438622354902,2014.0,,38.73301806533333,-9.153271593791477,0,24,7.0,1468.0,209.7142857142857,0,0,0
6328,Gavin Russell,male,1999-02-24 10:37:00,0.0,0.0,0.0,2.0,110.0,19.0,21.0,17.0,183.0,883.0,46.0,47.0,50.0,99.0,53.0,0.1966848623203705,2017.0,,38.73697299275666,-9.15753809957355,0,24,4.0,1454.0,363.5,0,0,0
12429,Lise Candler,female,2000-04-10 04:58:00,0.0,0.0,0.0,2.0,105.0,20.0,23.0,27.0,193.0,851.0,46.0,55.0,45.0,101.0,82.0,0.1974153280140007,2017.0,,38.66326476268533,-9.211755248462952,0,23,4.0,1443.0,360.75,0,0,0
26971,Patrica Palmer,female,2001-06-18 02:52:00,0.0,0.0,0.0,2.0,110.0,22.0,21.0,17.0,211.0,931.0,49.0,58.0,49.0,93.0,87.0,0.1995211663675217,2016.0,,38.7388176692852,-9.16267586588712,0,22,5.0,1540.0,308.0,0,0,0
4855,Billy Eastlick,male,2001-06-10 08:21:00,0.0,0.0,0.0,2.0,83.0,20.0,23.0,27.0,217.0,960.0,48.0,44.0,66.0,98.0,80.0,0.1993677243156677,2017.0,,38.75168377608731,-9.15367905187446,0,22,4.0,1563.0,390.75,0,0,0
7325,Patty Wuest,female,2000-11-07 09:19:00,0.0,0.0,0.0,2.0,90.0,21.0,22.0,27.0,200.0,939.0,51.0,49.0,58.0,91.0,70.0,0.2068919513112465,2016.0,,38.758656018817526,-9.161768794382684,0,23,5.0,1526.0,305.2,0,0,0
27462,Walter Aubin,male,2001-09-25 09:43:00,0.0,0.0,0.0,2.0,123.0,21.0,18.0,23.0,199.0,905.0,54.0,57.0,44.0,100.0,99.0,0.2036005301297844,2013.0,,38.74632958385607,-9.167372650038004,0,22,8.0,1526.0,190.75,0,0,0
7348,John Goodwin,male,2000-03-18 05:50:00,0.0,0.0,0.0,2.0,98.0,23.0,18.0,21.0,207.0,814.0,41.0,52.0,56.0,114.0,72.0,0.190901989390865,2017.0,,38.74884167241922,-9.151360805804948,0,23,4.0,1426.0,356.5,0,0,0
28768,Savannah Prince,female,2001-12-15 10:10:00,0.0,0.0,0.0,2.0,130.0,20.0,20.0,26.0,204.0,870.0,45.0,48.0,44.0,93.0,72.0,0.2015032957285698,2018.0,,38.734235457486754,-9.166268527211908,0,22,3.0,1480.0,493.3333333333333,0,0,0
2982,Jennie Garnett,female,2001-03-20 03:28:00,0.0,0.0,0.0,2.0,84.0,20.0,22.0,23.0,215.0,845.0,51.0,55.0,44.0,98.0,103.0,0.1969997948283461,2014.0,,38.75477534372844,-9.164236359218918,0,22,7.0,1435.0,205.0,0,0,0
29041,Roderick Colon,male,2001-12-30 09:31:00,0.0,0.0,0.0,2.0,88.0,21.0,23.0,18.0,233.0,900.0,51.0,53.0,53.0,110.0,66.0,0.1872642206442581,2018.0,,38.74606128201097,-9.154749608287036,0,22,3.0,1527.0,509.0,0,0,0
11229,Andrew Ness,male,1999-12-14 11:57:00,0.0,0.0,0.0,2.0,104.0,16.0,23.0,11.0,188.0,913.0,56.0,48.0,46.0,99.0,88.0,0.1924266400250209,2018.0,,38.73639663693314,-9.16562217633735,0,24,3.0,1481.0,493.6666666666667,0,0,0
18637,Richard Herndon,male,2001-12-21 12:15:00,0.0,0.0,0.0,2.0,81.0,24.0,22.0,24.0,218.0,905.0,49.0,43.0,52.0,100.0,89.0,0.1958789818505033,2016.0,,38.75669741699251,-9.162351199020025,0,22,5.0,1496.0,299.2,0,0,0
13031,John Franklin,male,2000-11-24 02:17:00,0.0,0.0,0.0,2.0,134.0,21.0,21.0,27.0,205.0,944.0,51.0,55.0,44.0,94.0,81.0,0.2087172595589979,2017.0,,38.73093058288864,-9.160309425263256,0,23,4.0,1575.0,393.75,0,0,0
16905,Patricia Brashears,female,2000-08-28 05:06:00,0.0,0.0,0.0,2.0,73.0,22.0,21.0,24.0,176.0,882.0,49.0,49.0,51.0,105.0,86.0,0.1962125193016067,2018.0,,38.74662185936032,-9.170282154598924,0,23,3.0,1431.0,477.0,0,0,0
24200,Marsha Hershey,female,1999-05-19 08:10:00,0.0,0.0,0.0,2.0,117.0,17.0,22.0,18.0,198.0,901.0,56.0,56.0,46.0,101.0,98.0,0.1974448555179965,2016.0,,38.75281614925162,-9.159735696948571,0,24,5.0,1510.0,302.0,0,0,0
5330,Angela Dean,female,1999-02-03 06:28:00,0.0,0.0,0.0,2.0,84.0,23.0,22.0,20.0,190.0,942.0,52.0,53.0,48.0,103.0,83.0,0.1945316751696648,2018.0,,38.73289429054885,-9.15844653101363,0,24,3.0,1515.0,505.0,0,0,0
3497,Nancy Rogers,female,2001-02-12 02:08:00,0.0,0.0,0.0,2.0,53.0,20.0,23.0,22.0,206.0,935.0,52.0,46.0,51.0,96.0,82.0,0.2033875831898538,2015.0,,38.65843079245168,-9.203523485610855,0,22,6.0,1481.0,246.8333333333333,0,0,0
18405,Cynthia Gallagher,female,1999-10-02 11:42:00,0.0,0.0,0.0,2.0,125.0,18.0,23.0,26.0,185.0,908.0,47.0,47.0,53.0,105.0,85.0,0.1921110954336332,2018.0,,38.72907120971836,-9.157344644877137,0,24,3.0,1514.0,504.6666666666667,0,0,0
2527,Hector Nazario,male,2001-01-28 07:46:00,0.0,0.0,0.0,2.0,83.0,19.0,23.0,18.0,201.0,837.0,48.0,50.0,56.0,97.0,76.0,0.1982596814492896,2019.0,,38.74442845783821,-9.16407666452769,0,22,2.0,1409.0,704.5,0,0,0
27247,Joyce Terrell,female,2000-09-12 02:16:00,0.0,0.0,0.0,2.0,80.0,20.0,23.0,16.0,184.0,913.0,47.0,53.0,42.0,94.0,89.0,0.1993779714185634,2014.0,,38.748218878775496,-9.160669475742498,0,23,7.0,1449.0,207.0,0,0,0
23873,Trisha Lambert,female,1999-02-18 08:34:00,0.0,0.0,0.0,2.0,78.0,23.0,22.0,26.0,188.0,930.0,46.0,55.0,56.0,106.0,86.0,0.1946769782963027,2017.0,,38.74736558347132,-9.155894086941329,0,24,4.0,1508.0,377.0,0,0,0
14581,Phyllis Schuler,female,2000-01-05 07:29:00,0.0,0.0,0.0,2.0,79.0,23.0,18.0,25.0,212.0,842.0,44.0,47.0,42.0,102.0,81.0,0.2024127905624473,2017.0,,38.72822968189825,-9.165717228266418,0,23,4.0,1416.0,354.0,0,0,0
10770,Michelle Greene,female,1999-07-26 03:52:00,0.0,0.0,0.0,2.0,106.0,25.0,20.0,20.0,203.0,904.0,47.0,48.0,49.0,93.0,79.0,0.20472702936475,2018.0,,38.74294625040955,-9.168266056201531,0,24,3.0,1495.0,498.3333333333333,0,0,0
16170,David Alexander,male,2001-05-21 10:44:00,0.0,0.0,0.0,2.0,85.0,20.0,22.0,26.0,191.0,1000.0,48.0,44.0,51.0,103.0,97.0,0.2069405857633878,2016.0,,38.758148921450896,-9.165920923915063,0,22,5.0,1568.0,313.6,0,0,0
16642,Raymond Sanchez,male,2001-09-26 07:31:00,0.0,0.0,0.0,2.0,86.0,22.0,22.0,23.0,184.0,883.0,48.0,56.0,45.0,102.0,73.0,0.2042619517534699,2016.0,,38.65636141050615,-9.19821930606441,0,22,5.0,1449.0,289.8,0,0,0
10901,Elvie King,female,1999-10-08 04:38:00,0.0,0.0,0.0,2.0,107.0,20.0,23.0,26.0,212.0,947.0,50.0,51.0,48.0,92.0,67.0,0.2021605032401922,2014.0,,38.75643729160827,-9.166920835389918,0,24,7.0,1553.0,221.8571428571429,0,0,0
10070,Nicole Roberts,female,2001-07-07 04:48:00,0.0,0.0,0.0,2.0,88.0,19.0,21.0,27.0,199.0,870.0,44.0,55.0,52.0,93.0,77.0,0.2008848404743708,2017.0,,38.747870527408445,-9.16258157307646,0,22,4.0,1447.0,361.75,0,0,0
20101,Nicholas Gunther,male,1999-06-15 01:37:00,0.0,0.0,0.0,2.0,120.0,18.0,20.0,13.0,202.0,932.0,55.0,45.0,54.0,101.0,84.0,0.1999476052186951,2020.0,,38.734417564783286,-9.15297462474557,0,24,1.0,1540.0,1540.0,0,0,0
29629,Ira Schmitz,male,2000-10-01 05:39:00,0.0,0.0,0.0,2.0,122.0,20.0,22.0,22.0,199.0,892.0,58.0,46.0,51.0,97.0,88.0,0.1976329657586504,2016.0,,38.7525362522358,-9.157450398843018,0,23,5.0,1507.0,301.4,0,0,0
19364,Justin Garza,male,2001-05-06 08:52:00,0.0,0.0,0.0,2.0,93.0,17.0,23.0,15.0,186.0,941.0,47.0,42.0,47.0,96.0,60.0,0.1902991800585217,2018.0,,38.744034215295095,-9.160442968522588,0,22,3.0,1484.0,494.6666666666667,0,0,0
29779,Nella Witman,female,2001-05-09 04:17:00,0.0,0.0,0.0,2.0,150.0,22.0,22.0,21.0,222.0,905.0,51.0,46.0,45.0,102.0,55.0,0.19063972779407,2015.0,,38.73154683318595,-9.155756900229182,0,22,6.0,1564.0,260.6666666666667,0,0,0
7529,Tiffaney Goatley,female,2001-04-14 05:14:00,0.0,0.0,0.0,2.0,109.0,16.0,22.0,23.0,205.0,845.0,49.0,56.0,49.0,109.0,77.0,0.1997172054275923,2016.0,,38.74701115766361,-9.161101987587786,0,22,5.0,1461.0,292.2,0,0,0
24218,Cindy Starner,female,2001-08-19 11:52:00,0.0,0.0,0.0,2.0,102.0,22.0,18.0,29.0,196.0,934.0,59.0,52.0,49.0,103.0,81.0,0.2112459447714024,2019.0,,38.726178696741776,-9.156310373546509,0,22,2.0,1546.0,773.0,0,0,0
659,Brian Furnace,male,2001-11-03 06:39:00,0.0,0.0,0.0,2.0,91.0,21.0,22.0,27.0,197.0,881.0,48.0,48.0,44.0,100.0,79.0,0.1999879843470887,2014.0,,38.66435282118676,-9.20817624419479,0,22,7.0,1457.0,208.1428571428572,0,0,0
15313,David Klemke,male,2000-08-10 04:03:00,0.0,0.0,0.0,2.0,101.0,24.0,23.0,18.0,191.0,918.0,45.0,51.0,52.0,112.0,88.0,0.2037845495393667,2017.0,,38.74961136750332,-9.159054103800656,0,23,4.0,1512.0,378.0,0,0,0
4973,Jesus Harrison,male,1999-05-31 08:51:00,0.0,0.0,0.0,2.0,119.0,19.0,22.0,25.0,207.0,719.0,45.0,53.0,52.0,109.0,81.0,0.1983215133978234,2020.0,,38.75223005725245,-9.158809381568616,0,24,1.0,1348.0,1348.0,0,0,0
3039,Catherine Purvis,female,2001-02-25 05:05:00,0.0,0.0,0.0,2.0,127.0,24.0,22.0,20.0,195.0,796.0,51.0,48.0,46.0,102.0,79.0,0.2006113506392457,2015.0,,38.668733340740935,-9.198546779619594,0,22,6.0,1409.0,234.8333333333333,0,0,0
25638,Woodrow Flaherty,male,1999-11-28 11:26:00,0.0,0.0,0.0,2.0,95.0,18.0,21.0,15.0,213.0,916.0,48.0,52.0,50.0,99.0,75.0,0.1937689013237326,2018.0,,38.759098202365976,-9.1579786500535,0,24,3.0,1506.0,502.0,0,0,0
3594,Marvin Sinclair,male,2001-12-21 05:30:00,0.0,0.0,0.0,2.0,73.0,21.0,21.0,13.0,207.0,932.0,53.0,48.0,49.0,92.0,77.0,0.2082333145793257,2019.0,,38.656302638672685,-9.209873024929086,0,22,2.0,1488.0,744.0,0,0,0
1080,Mary Dombrowski,female,1999-06-09 12:07:00,0.0,0.0,0.0,2.0,109.0,20.0,21.0,18.0,195.0,1002.0,45.0,50.0,52.0,99.0,86.0,0.1977829892627102,2016.0,,38.66081964066167,-9.204534879774895,0,24,5.0,1590.0,318.0,0,0,0
352,Dorothy Hill,female,2001-08-24 02:59:00,0.0,0.0,0.0,2.0,115.0,19.0,23.0,28.0,186.0,878.0,48.0,49.0,46.0,97.0,82.0,0.2002690776935487,2019.0,942742.0,38.72634123196375,-9.167659214503724,0,22,2.0,1466.0,733.0,0,0,0
28925,Richard Adkerson,male,2000-04-04 06:13:00,0.0,0.0,0.0,2.0,91.0,20.0,20.0,19.0,188.0,990.0,46.0,48.0,55.0,102.0,75.0,0.2036332749343495,2017.0,,38.65754563099753,-9.20598065561227,0,23,4.0,1559.0,389.75,0,0,0
17684,Gladys Vasquez,female,2000-09-05 09:15:00,0.0,0.0,0.0,2.0,102.0,20.0,23.0,29.0,206.0,866.0,50.0,41.0,55.0,104.0,89.0,0.1976211537005716,2018.0,,38.73475279058873,-9.152700593703225,0,23,3.0,1473.0,491.0,0,0,0
29866,Lucile Kobayashi,female,2000-03-26 04:03:00,0.0,0.0,0.0,2.0,95.0,20.0,23.0,27.0,194.0,918.0,47.0,42.0,46.0,108.0,78.0,0.1971134195216812,2014.0,,38.7361237235001,-9.155285983482006,0,23,7.0,1497.0,213.8571428571429,0,0,0
24852,Lanny Morrone,male,2000-07-21 11:46:00,0.0,0.0,0.0,2.0,78.0,20.0,20.0,21.0,195.0,925.0,47.0,46.0,48.0,99.0,63.0,0.2050864209565065,2016.0,,38.748753128660056,-9.155137814191312,0,23,5.0,1479.0,295.8,0,0,0
25401,Eric Blaisdell,male,2000-11-08 12:22:00,0.0,0.0,0.0,2.0,120.0,18.0,21.0,14.0,219.0,822.0,42.0,53.0,40.0,105.0,67.0,0.2026531263939862,2016.0,,38.664232459874135,-9.21077957003421,0,23,5.0,1433.0,286.6,0,0,0
25819,Robert Berezny,male,2001-11-18 12:13:00,0.0,0.0,0.0,2.0,126.0,22.0,22.0,21.0,204.0,878.0,44.0,66.0,51.0,106.0,70.0,0.2072230687045674,2014.0,,38.73256690239295,-9.164361117130928,0,22,7.0,1518.0,216.8571428571429,0,0,0
5556,Steven Pate,male,2000-04-17 05:28:00,0.0,0.0,0.0,2.0,64.0,21.0,21.0,4.0,180.0,907.0,45.0,45.0,45.0,105.0,88.0,0.196364657518875,2013.0,,38.74685611276004,-9.17137322843637,0,23,8.0,1416.0,177.0,0,0,0
16748,Michael Yamada,male,1999-04-08 01:02:00,1.0,0.0,0.0,2.0,145.0,20.0,23.0,17.0,228.0,941.0,56.0,45.0,44.0,99.0,86.0,0.1915438010608325,2015.0,,38.75260135465084,-9.163479541880374,0,24,6.0,1595.0,265.8333333333333,0,0,0
14815,Julia Jones,female,2001-09-24 02:11:00,0.0,0.0,0.0,2.0,93.0,20.0,21.0,27.0,208.0,848.0,51.0,45.0,54.0,97.0,86.0,0.1975870302346116,2017.0,,38.725341710693165,-9.154092781766195,0,22,4.0,1443.0,360.75,0,0,0
5633,Gloria Weaver,female,2001-09-11 11:07:00,0.0,0.0,0.0,2.0,127.0,19.0,21.0,20.0,221.0,988.0,49.0,59.0,50.0,105.0,84.0,0.2019757369333817,2016.0,,38.73679808568,-9.156002503145002,0,22,5.0,1638.0,327.6,0,0,0
27454,Robert Torres,male,1999-10-07 11:18:00,0.0,0.0,0.0,2.0,106.0,18.0,21.0,26.0,209.0,893.0,49.0,39.0,55.0,105.0,77.0,0.1938046180074369,2016.0,,38.744717503901605,-9.171736084869488,0,24,5.0,1500.0,300.0,0,0,0
9119,Celia Williams,female,2000-08-21 02:24:00,0.0,0.0,0.0,2.0,119.0,20.0,23.0,31.0,186.0,859.0,55.0,48.0,39.0,94.0,70.0,0.1974777275232732,2017.0,,38.725473162519926,-9.164592470324571,0,23,4.0,1451.0,362.75,0,0,0
10671,Donald Cunningham,male,2000-12-10 07:18:00,0.0,0.0,0.0,2.0,81.0,22.0,22.0,14.0,197.0,989.0,56.0,42.0,39.0,108.0,68.0,0.1987996813119361,2017.0,,38.75249510105652,-9.153084558588166,0,23,4.0,1548.0,387.0,0,0,0
2344,Kenneth Hutzler,male,2000-05-12 02:25:00,0.0,0.0,0.0,2.0,128.0,17.0,21.0,20.0,209.0,860.0,50.0,47.0,54.0,102.0,52.0,0.2045470879148095,2016.0,,38.65408653578607,-9.21294744845889,0,23,5.0,1487.0,297.4,0,0,0
7892,Edward Dowden,male,1999-02-23 01:41:00,0.0,0.0,0.0,2.0,62.0,20.0,21.0,17.0,202.0,918.0,54.0,54.0,58.0,107.0,70.0,0.1939742615863321,2019.0,,38.66644702540359,-9.199892997799994,0,24,2.0,1492.0,746.0,0,0,0
20119,Walter Collier,male,2000-02-13 07:12:00,0.0,0.0,0.0,2.0,99.0,21.0,21.0,20.0,214.0,818.0,56.0,44.0,48.0,102.0,79.0,0.1981544457802539,2014.0,,38.65917520240624,-9.2108597067226,0,23,7.0,1422.0,203.1428571428572,0,0,0
27125,Maria Tafoya,female,2001-12-27 11:42:00,0.0,0.0,0.0,2.0,118.0,21.0,22.0,8.0,199.0,849.0,47.0,62.0,49.0,113.0,70.0,0.1984782734300696,2020.0,,38.75645226130752,-9.156508578236846,0,22,1.0,1466.0,1466.0,0,0,0
20528,Natasha Dorey,female,2000-06-20 11:09:00,0.0,0.0,0.0,2.0,150.0,20.0,21.0,8.0,187.0,876.0,43.0,51.0,50.0,90.0,80.0,0.2010317823511296,2017.0,,38.65951882079407,-9.20450156779076,0,23,4.0,1475.0,368.75,0,0,0
12057,Michael Mccloud,male,2000-09-04 05:52:00,0.0,0.0,0.0,2.0,93.0,19.0,22.0,16.0,212.0,929.0,49.0,49.0,52.0,101.0,87.0,0.1931335996663766,2018.0,,38.75332786904413,-9.157189392568696,0,23,3.0,1520.0,506.6666666666667,0,0,0
19564,Keith Manigault,male,1999-03-30 02:02:00,0.0,0.0,0.0,2.0,98.0,20.0,23.0,16.0,215.0,943.0,48.0,45.0,53.0,101.0,76.0,0.1957884152887032,2019.0,,38.72820150275866,-9.16396961089113,0,24,2.0,1539.0,769.5,0,0,0
20830,Steven Stclair,male,2000-10-21 12:46:00,0.0,0.0,0.0,2.0,96.0,18.0,22.0,19.0,204.0,927.0,52.0,46.0,46.0,100.0,85.0,0.2100279732163668,2014.0,,38.72755186469816,-9.160763636858048,0,23,7.0,1508.0,215.42857142857144,0,0,0
5674,Clara Benedict,female,2000-06-17 09:42:00,0.0,0.0,0.0,2.0,91.0,22.0,22.0,18.0,192.0,907.0,52.0,48.0,46.0,101.0,103.0,0.2054156319539581,2015.0,,38.74265401816704,-9.170648477384775,0,23,6.0,1477.0,246.16666666666663,0,0,0
23834,Cody Long,male,2000-05-29 06:38:00,0.0,0.0,0.0,2.0,122.0,19.0,21.0,26.0,204.0,914.0,49.0,52.0,45.0,105.0,66.0,0.2015739239760688,2019.0,,38.75798959011193,-9.151955343597953,0,23,2.0,1536.0,768.0,0,0,0
24354,Michael Baker,male,2001-05-05 02:37:00,0.0,0.0,0.0,2.0,96.0,22.0,23.0,20.0,215.0,883.0,55.0,49.0,44.0,99.0,73.0,0.1971059019780142,2016.0,,38.73755104671992,-9.15912003290008,0,22,5.0,1483.0,296.6,0,0,0
16022,Carl Stewart,male,2001-12-04 03:42:00,0.0,0.0,0.0,2.0,65.0,22.0,21.0,21.0,200.0,909.0,47.0,50.0,60.0,103.0,78.0,0.2006856202430825,2018.0,,38.66666319653255,-9.206980829537846,0,22,3.0,1477.0,492.3333333333333,0,0,0
22181,Carlos Etheridge,male,2001-04-06 12:38:00,0.0,0.0,0.0,2.0,85.0,17.0,22.0,20.0,176.0,917.0,51.0,54.0,49.0,89.0,95.0,0.201658017871082,2015.0,,38.75122383029493,-9.164121185442614,0,22,6.0,1458.0,243.0,0,0,0
11972,Lenard Moss,male,2001-12-26 08:15:00,0.0,0.0,0.0,2.0,114.0,19.0,21.0,13.0,200.0,839.0,40.0,54.0,46.0,94.0,104.0,0.1938785988180009,2020.0,,38.74907790034472,-9.162181409725402,0,22,1.0,1419.0,1419.0,0,0,0
5348,Jose Vasquez,male,2000-02-02 03:39:00,0.0,0.0,0.0,2.0,117.0,21.0,21.0,26.0,203.0,887.0,48.0,55.0,54.0,100.0,78.0,0.2007515919367946,2012.0,,38.72560986726887,-9.152449519593857,0,23,9.0,1511.0,167.88888888888889,0,0,0
6817,Dona Moody,female,2000-11-10 03:31:00,0.0,0.0,0.0,2.0,72.0,16.0,23.0,21.0,190.0,888.0,40.0,58.0,55.0,101.0,92.0,0.2005520557040469,2019.0,,38.65438069887995,-9.203376895614667,0,23,2.0,1441.0,720.5,0,0,0
27721,Rosemarie Tolentino,female,2000-04-20 10:41:00,0.0,0.0,0.0,2.0,90.0,17.0,23.0,22.0,187.0,844.0,53.0,54.0,54.0,96.0,86.0,0.1927710206236052,2016.0,,38.75507097851646,-9.167007169062266,0,23,5.0,1417.0,283.4,0,0,0
11104,Mary Westrom,female,2000-01-08 06:21:00,0.0,0.0,0.0,2.0,94.0,19.0,20.0,28.0,213.0,913.0,55.0,57.0,49.0,108.0,67.0,0.2054907508562838,2018.0,,38.725919737922176,-9.160911533941478,0,23,3.0,1536.0,512.0,0,0,0
25930,Frances Walker,female,2001-11-14 08:28:00,0.0,0.0,0.0,2.0,124.0,20.0,22.0,32.0,199.0,905.0,55.0,48.0,46.0,86.0,69.0,0.2019128779903043,2019.0,,38.73282101645236,-9.161295557795,0,22,2.0,1515.0,757.5,0,0,0
28993,Katherine Knobloch,female,2000-12-26 07:35:00,0.0,0.0,0.0,2.0,93.0,20.0,20.0,12.0,197.0,879.0,48.0,53.0,44.0,106.0,80.0,0.1914340008539071,2016.0,,38.75187741401712,-9.162736490331463,0,23,5.0,1452.0,290.4,0,0,0
3652,Collin Smith,male,2000-07-03 02:42:00,0.0,0.0,0.0,2.0,114.0,19.0,21.0,19.0,212.0,990.0,54.0,65.0,47.0,102.0,83.0,0.1940365031191991,2014.0,,38.75169918764011,-9.164905889691784,0,23,7.0,1622.0,231.7142857142857,0,0,0
29536,Barbara Gould,female,1999-12-03 03:59:00,0.0,0.0,0.0,2.0,76.0,21.0,23.0,25.0,191.0,902.0,55.0,53.0,49.0,103.0,88.0,0.2010547969968343,2017.0,,38.66708209702451,-9.204318343324882,0,24,4.0,1475.0,368.75,0,0,0
24091,Susan White,female,2001-04-08 07:12:00,0.0,0.0,0.0,2.0,80.0,16.0,21.0,22.0,192.0,898.0,52.0,48.0,53.0,103.0,62.0,0.2024303685439621,2016.0,,38.66068968253569,-9.197897889972836,0,22,5.0,1464.0,292.8,0,0,0
1062,John Tindall,male,1999-11-01 07:04:00,0.0,0.0,0.0,2.0,101.0,17.0,20.0,22.0,201.0,863.0,49.0,49.0,45.0,94.0,75.0,0.1992902829395758,2018.0,,38.66476757238052,-9.210844135323908,0,24,3.0,1441.0,480.3333333333333,0,0,0
27156,Walter White,male,2000-08-31 12:36:00,0.0,0.0,0.0,2.0,118.0,23.0,22.0,18.0,194.0,905.0,50.0,49.0,37.0,101.0,76.0,0.2074919839331108,2020.0,,38.745028828567264,-9.17064875788206,0,23,1.0,1495.0,1495.0,0,0,0
17188,Michael Swims,male,2001-06-02 04:54:00,0.0,0.0,0.0,2.0,100.0,18.0,18.0,30.0,195.0,874.0,49.0,38.0,56.0,101.0,96.0,0.2024561014349291,2017.0,,38.66861246266736,-9.204667686055174,0,22,4.0,1461.0,365.25,0,0,0
72,Anne Seamon,female,1999-05-08 07:35:00,0.0,0.0,0.0,2.0,75.0,19.0,22.0,16.0,215.0,933.0,52.0,52.0,48.0,94.0,85.0,0.2100450972317832,2016.0,935780.0,38.65939260292765,-9.198340874159916,0,24,5.0,1504.0,300.8,0,0,0
1163,George Casson,male,2001-09-29 07:05:00,0.0,0.0,0.0,2.0,99.0,19.0,22.0,25.0,194.0,888.0,55.0,52.0,52.0,102.0,77.0,0.1961494541236267,2016.0,,38.74701567799051,-9.158686901587837,0,22,5.0,1486.0,297.2,0,0,0
11971,Kevin Dutton,male,1999-04-09 07:56:00,0.0,0.0,0.0,2.0,72.0,21.0,23.0,26.0,210.0,893.0,57.0,44.0,47.0,100.0,82.0,0.2041139345278651,2018.0,,38.72822855832161,-9.16279428200657,0,24,3.0,1470.0,490.0,0,0,0
28724,Cynthia Chary,female,2001-12-03 10:29:00,0.0,0.0,0.0,2.0,88.0,16.0,21.0,18.0,190.0,908.0,59.0,44.0,53.0,97.0,85.0,0.1939510499166495,2017.0,,38.7483949748176,-9.162571687095651,0,22,4.0,1473.0,368.25,0,0,0
9589,Patrick Hill,male,1999-10-09 05:20:00,0.0,0.0,0.0,2.0,92.0,24.0,23.0,23.0,213.0,853.0,55.0,58.0,49.0,96.0,85.0,0.1893580632706312,2020.0,,38.74641202934795,-9.171462959590505,0,24,1.0,1463.0,1463.0,0,0,0
4484,Robert Reyes,male,2000-07-14 12:43:00,0.0,0.0,0.0,2.0,111.0,22.0,21.0,22.0,226.0,934.0,58.0,48.0,51.0,98.0,79.0,0.2053512555905695,2016.0,,38.66730480759891,-9.204722713231565,0,23,5.0,1570.0,314.0,0,0,0
5641,Steve Ehrgott,male,2000-08-19 11:56:00,0.0,0.0,0.0,2.0,116.0,21.0,22.0,17.0,199.0,899.0,52.0,48.0,47.0,105.0,77.0,0.1925844126292634,2014.0,,38.65698314015628,-9.204124799499311,0,23,7.0,1504.0,214.8571428571429,0,0,0
19059,Mariela Heller,female,1999-02-03 09:56:00,0.0,0.0,0.0,2.0,105.0,19.0,22.0,18.0,194.0,923.0,54.0,45.0,50.0,98.0,92.0,0.2004916714622934,2016.0,,38.74951503480294,-9.162742223349516,0,24,5.0,1506.0,301.2,0,0,0
19377,David Dorsey,male,1999-12-07 03:55:00,0.0,0.0,0.0,2.0,88.0,18.0,23.0,19.0,219.0,872.0,43.0,51.0,51.0,104.0,94.0,0.2043347425866172,2015.0,,38.65936189035387,-9.212335968919056,0,24,6.0,1465.0,244.16666666666663,0,0,0
13473,Nicholas Burks,male,1999-07-10 02:27:00,0.0,0.0,0.0,2.0,114.0,19.0,23.0,25.0,185.0,929.0,49.0,55.0,50.0,99.0,85.0,0.1975418287067927,2016.0,,38.74198041378082,-9.16434897820081,0,24,5.0,1525.0,305.0,0,0,0
8909,Tamara Sykes,female,2001-06-05 05:10:00,0.0,0.0,0.0,2.0,97.0,22.0,22.0,24.0,203.0,924.0,44.0,40.0,53.0,94.0,77.0,0.2049523125830084,2014.0,,38.73736749124575,-9.154367041979423,0,22,7.0,1501.0,214.42857142857144,0,0,0
3927,Patricia Fu,female,2000-12-30 01:04:00,0.0,0.0,0.0,2.0,124.0,18.0,20.0,12.0,195.0,929.0,54.0,47.0,42.0,102.0,74.0,0.2059944394324347,2015.0,,38.74595199592709,-9.16837819331557,0,23,6.0,1523.0,253.8333333333333,0,0,0
14663,Norberto Rivenburg,male,2000-04-16 11:28:00,0.0,0.0,0.0,2.0,110.0,18.0,23.0,21.0,193.0,785.0,50.0,50.0,51.0,91.0,78.0,0.1973319491899781,2019.0,,38.74631273673666,-9.162096934432464,0,23,2.0,1369.0,684.5,0,0,0
18994,Louise Jensen,female,1999-12-16 07:19:00,0.0,0.0,0.0,2.0,98.0,23.0,23.0,22.0,194.0,1003.0,45.0,42.0,39.0,106.0,79.0,0.2066256080738304,2019.0,,38.756179768835295,-9.170579983565498,0,24,2.0,1572.0,786.0,0,0,0
6487,Linda Freitas,female,2000-11-09 10:46:00,0.0,0.0,0.0,2.0,115.0,20.0,23.0,19.0,212.0,903.0,50.0,55.0,57.0,100.0,80.0,0.1912004247976692,2015.0,,38.66667424287769,-9.201924347163809,0,23,6.0,1531.0,255.16666666666663,0,0,0
8365,Cynthia Bise,female,2000-05-14 07:25:00,0.0,0.0,0.0,2.0,70.0,20.0,21.0,23.0,189.0,828.0,55.0,63.0,46.0,98.0,75.0,0.1985870862926206,2015.0,,38.72948037586522,-9.155299753044742,0,23,6.0,1392.0,232.0,0,0,0
14576,Kathrine Hamm,female,1999-07-04 09:33:00,0.0,0.0,0.0,2.0,98.0,16.0,23.0,28.0,187.0,976.0,50.0,48.0,51.0,103.0,89.0,0.1980521694602857,2016.0,,38.73355843398723,-9.166994893795223,0,24,5.0,1557.0,311.4,0,0,0
2845,Walter Mons,male,2001-06-08 05:44:00,1.0,0.0,0.0,2.0,84.0,19.0,22.0,24.0,200.0,887.0,48.0,58.0,46.0,109.0,92.0,0.2050787854909812,2017.0,,38.66549305291528,-9.212356417497215,0,22,4.0,1475.0,368.75,0,0,0
23950,Jose Lard,male,1999-05-30 12:54:00,0.0,0.0,0.0,2.0,99.0,19.0,22.0,20.0,202.0,870.0,49.0,50.0,47.0,96.0,78.0,0.1983016790965321,2016.0,,38.75782260864114,-9.164871798819435,0,24,5.0,1452.0,290.4,0,0,0
5638,Tammy Meinke,female,2000-10-21 09:41:00,0.0,0.0,0.0,2.0,78.0,22.0,22.0,22.0,215.0,923.0,49.0,44.0,54.0,103.0,71.0,0.2008854300484408,2013.0,,38.74031985298349,-9.160859065464198,0,23,8.0,1510.0,188.75,0,0,0
25408,John Brown,male,1999-12-31 08:22:00,0.0,0.0,0.0,2.0,87.0,20.0,22.0,20.0,207.0,899.0,42.0,55.0,48.0,108.0,84.0,0.1959846019420444,2016.0,,38.72885566657831,-9.165002206471504,0,24,5.0,1486.0,297.2,0,0,0
387,Kyle Jackson,male,2001-05-16 08:59:00,0.0,0.0,0.0,2.0,98.0,20.0,20.0,20.0,212.0,935.0,56.0,42.0,54.0,94.0,97.0,0.2066424555424037,2017.0,951026.0,38.66595163847461,-9.212018703628544,0,22,4.0,1531.0,382.75,0,0,0
20063,Monica Edelstein,female,1999-10-25 02:36:00,0.0,0.0,0.0,2.0,86.0,21.0,23.0,17.0,183.0,931.0,51.0,55.0,47.0,104.0,73.0,0.2068551500512035,2016.0,,38.73600758159464,-9.157252936065106,0,24,5.0,1495.0,299.0,0,0,0
7800,Virginia Martin,female,2001-03-18 09:40:00,0.0,0.0,0.0,2.0,100.0,18.0,18.0,21.0,207.0,949.0,45.0,49.0,58.0,99.0,110.0,0.1993744060763256,2019.0,,38.75483054447791,-9.16121966322285,0,22,2.0,1546.0,773.0,0,0,0
26524,Lloyd Weidert,male,2001-08-24 03:48:00,0.0,0.0,0.0,2.0,112.0,20.0,23.0,21.0,199.0,915.0,44.0,51.0,53.0,101.0,87.0,0.1980133442046334,2018.0,,38.74904642376724,-9.1563798943197,0,22,3.0,1516.0,505.3333333333333,0,0,0
23028,Patricia Maclean,female,1999-08-24 09:57:00,0.0,0.0,0.0,2.0,99.0,21.0,22.0,20.0,191.0,944.0,49.0,42.0,47.0,99.0,81.0,0.1941111867091678,2016.0,,38.72515107195876,-9.155548964979108,0,24,5.0,1512.0,302.4,0,0,0
6045,Jackie Mccoy,female,2000-11-11 04:31:00,0.0,0.0,0.0,2.0,115.0,19.0,22.0,13.0,213.0,857.0,43.0,47.0,40.0,102.0,85.0,0.1975001784024651,2020.0,,38.75672309506319,-9.166004493024545,0,23,1.0,1449.0,1449.0,0,0,0
1264,George Alvarez,male,2000-09-08 09:12:00,0.0,0.0,0.0,2.0,102.0,17.0,22.0,17.0,202.0,926.0,45.0,48.0,56.0,100.0,81.0,0.1856035422706189,2015.0,,38.74392987322896,-9.16552372517533,0,23,6.0,1513.0,252.16666666666663,0,0,0
24296,Charlotte Richardson,female,1999-01-08 11:04:00,0.0,0.0,0.0,2.0,103.0,18.0,21.0,26.0,209.0,829.0,49.0,43.0,44.0,103.0,84.0,0.2022678341128984,2014.0,,38.66870727846299,-9.213026375581451,0,24,7.0,1424.0,203.42857142857144,0,0,0
17549,Andrea Gensler,female,1999-12-02 08:17:00,0.0,0.0,0.0,2.0,104.0,22.0,22.0,22.0,209.0,889.0,58.0,48.0,41.0,99.0,92.0,0.2032987044384661,2016.0,,38.75768374306367,-9.152651368864875,0,24,5.0,1492.0,298.4,0,0,0
6434,Don Kim,male,2000-11-24 05:54:00,0.0,0.0,0.0,2.0,138.0,23.0,23.0,24.0,184.0,874.0,48.0,51.0,43.0,94.0,78.0,0.2115449862425217,2020.0,,38.73529074251326,-9.15790244531238,0,23,1.0,1479.0,1479.0,0,0,0
22433,Ruth Yaiva,female,1999-12-26 04:45:00,0.0,0.0,0.0,2.0,107.0,20.0,21.0,17.0,196.0,872.0,50.0,49.0,48.0,97.0,71.0,0.1978936504539312,2017.0,,38.65457622375119,-9.207454409819452,0,24,4.0,1456.0,364.0,0,0,0
27883,David Hedges,male,2000-02-28 03:37:00,0.0,0.0,0.0,2.0,101.0,19.0,22.0,21.0,205.0,832.0,53.0,53.0,52.0,107.0,79.0,0.2089500053089061,2017.0,,38.74992095080174,-9.157000078182458,0,23,4.0,1443.0,360.75,0,0,0
2366,Judith Butler,female,1999-03-18 12:40:00,0.0,0.0,0.0,2.0,130.0,25.0,20.0,19.0,208.0,911.0,50.0,46.0,50.0,106.0,72.0,0.2024669302779651,2015.0,,38.75080609975473,-9.165019524238216,0,24,6.0,1545.0,257.5,0,0,0
27911,Scott Levy,male,2000-06-05 12:25:00,0.0,0.0,0.0,2.0,88.0,21.0,22.0,21.0,215.0,848.0,43.0,49.0,55.0,104.0,84.0,0.1949086708770206,2017.0,,38.66729364843923,-9.20147603233939,0,23,4.0,1444.0,361.0,0,0,0
1340,Florine Alston,female,1999-09-07 04:09:00,0.0,0.0,0.0,2.0,118.0,23.0,21.0,21.0,209.0,865.0,41.0,50.0,41.0,99.0,76.0,0.211413840440127,2016.0,,38.6554491170839,-9.211441468757018,0,24,5.0,1467.0,293.4,0,0,0
11951,Anthony Housel,male,2001-09-06 04:42:00,0.0,0.0,0.0,2.0,107.0,23.0,23.0,19.0,186.0,997.0,51.0,54.0,49.0,96.0,62.0,0.1996832356272339,2016.0,,38.65611190476921,-9.201338078804534,0,22,5.0,1582.0,316.4,0,0,0
19135,Sandra Jansons,female,2001-03-23 09:00:00,0.0,0.0,0.0,2.0,99.0,18.0,21.0,21.0,190.0,899.0,42.0,52.0,39.0,96.0,75.0,0.1900296535384835,2016.0,,38.75899882160321,-9.156536975631925,0,22,5.0,1456.0,291.2,0,0,0
20179,Melissa Porter,female,2001-06-13 07:36:00,0.0,0.0,0.0,2.0,123.0,19.0,21.0,15.0,186.0,908.0,42.0,53.0,47.0,96.0,96.0,0.1863087852661181,2017.0,,38.75054775298174,-9.151470397706651,0,22,4.0,1489.0,372.25,0,0,0
15326,Paul Schmitt,male,2001-03-26 08:47:00,0.0,0.0,0.0,2.0,110.0,21.0,22.0,25.0,204.0,899.0,43.0,53.0,48.0,99.0,90.0,0.2071525817583629,2015.0,,38.75544583703032,-9.153233965449784,0,22,6.0,1502.0,250.3333333333333,0,0,0
11286,Marlyn Kivett,female,2001-04-04 11:31:00,0.0,0.0,0.0,2.0,107.0,16.0,22.0,17.0,205.0,862.0,54.0,51.0,55.0,99.0,90.0,0.1947540242035269,2016.0,,38.752464668372966,-9.166824394409172,0,22,5.0,1466.0,293.2,0,0,0
24785,Denise Marti,female,1999-02-24 08:42:00,0.0,0.0,0.0,2.0,93.0,22.0,21.0,23.0,194.0,946.0,52.0,53.0,51.0,100.0,86.0,0.1887015641339788,2015.0,,38.65922995833322,-9.208507144061372,0,24,6.0,1534.0,255.66666666666663,0,0,0
11555,Holly Rawlings,female,2001-09-19 12:49:00,0.0,0.0,0.0,2.0,140.0,21.0,22.0,22.0,210.0,1018.0,48.0,59.0,36.0,109.0,78.0,0.1962072226128726,2018.0,,38.74016408136733,-9.1603066359402,0,22,3.0,1663.0,554.3333333333334,0,0,0
24798,Maura Heron,female,2001-03-30 06:17:00,0.0,0.0,0.0,2.0,106.0,20.0,23.0,16.0,228.0,847.0,58.0,52.0,50.0,107.0,84.0,0.1901963770883264,2018.0,,38.66337480083385,-9.198192467996767,0,22,3.0,1484.0,494.6666666666667,0,0,0
14344,Fannie Hundley,female,2001-10-09 10:34:00,0.0,0.0,0.0,2.0,75.0,20.0,22.0,23.0,190.0,973.0,51.0,47.0,45.0,109.0,76.0,0.195716609327351,2016.0,,38.66901713479033,-9.209951166900955,0,22,5.0,1533.0,306.6,0,0,0
3075,Arvilla Herrera,female,1999-04-18 10:01:00,0.0,0.0,0.0,2.0,99.0,19.0,22.0,18.0,192.0,952.0,49.0,45.0,43.0,98.0,80.0,0.194632410646808,2018.0,,38.74605390670349,-9.160337097511878,0,24,3.0,1515.0,505.0,0,0,0
12751,John Burnett,male,2000-05-10 12:15:00,0.0,0.0,0.0,2.0,102.0,19.0,22.0,17.0,220.0,926.0,46.0,48.0,45.0,101.0,92.0,0.2044988761044057,2015.0,,38.73023050193782,-9.16620748943112,0,23,6.0,1524.0,254.0,0,0,0
11207,Michelle Canfield,female,2001-07-27 10:18:00,0.0,0.0,0.0,2.0,104.0,20.0,23.0,28.0,201.0,933.0,53.0,53.0,55.0,98.0,74.0,0.2096225341998812,2019.0,,38.751665964376585,-9.169788089543871,0,22,2.0,1545.0,772.5,0,0,0
7131,Linda Trowell,female,2000-03-07 10:31:00,0.0,0.0,0.0,2.0,91.0,19.0,23.0,18.0,196.0,873.0,51.0,53.0,53.0,102.0,83.0,0.199861436598839,2020.0,,38.73196424408347,-9.154174844649727,0,23,1.0,1456.0,1456.0,0,0,0
19239,Matthew Tarone,male,2001-01-09 01:50:00,0.0,0.0,0.0,2.0,109.0,19.0,21.0,26.0,193.0,913.0,55.0,53.0,48.0,102.0,75.0,0.1940856546962149,2015.0,,38.72994211630098,-9.153443933685416,0,22,6.0,1518.0,253.0,0,0,0
27002,Kenneth Corvino,male,1999-06-05 12:19:00,0.0,0.0,0.0,2.0,89.0,16.0,20.0,22.0,192.0,980.0,52.0,48.0,49.0,103.0,91.0,0.204586487063204,2015.0,,38.74509954318021,-9.152333986058718,0,24,6.0,1551.0,258.5,0,0,0
10231,Michael Sherwood,male,2000-10-31 07:24:00,0.0,0.0,0.0,2.0,76.0,21.0,23.0,23.0,189.0,832.0,53.0,55.0,53.0,97.0,78.0,0.2015280118538124,2016.0,,38.65675714421391,-9.20133454853975,0,23,5.0,1399.0,279.8,0,0,0
931,Luther Massie,male,2001-03-08 04:48:00,0.0,0.0,0.0,2.0,89.0,19.0,21.0,20.0,207.0,918.0,43.0,50.0,46.0,106.0,89.0,0.1976476686948488,2017.0,,38.75209674640484,-9.163209742002962,0,22,4.0,1498.0,374.5,0,0,0
21198,John Cray,male,2000-07-30 05:58:00,0.0,0.0,0.0,2.0,137.0,18.0,23.0,15.0,200.0,870.0,51.0,46.0,46.0,105.0,75.0,0.197853145571728,2018.0,,38.73256991914239,-9.165647038320913,0,23,3.0,1488.0,496.0,0,0,0
18262,Janet Caldwell,female,1999-04-29 10:52:00,0.0,0.0,0.0,2.0,99.0,19.0,22.0,23.0,192.0,936.0,53.0,42.0,51.0,92.0,66.0,0.1991439753607187,2015.0,,38.661233837997024,-9.211486135079223,0,24,6.0,1507.0,251.16666666666663,0,0,0
8859,Yoshie Santos,female,1999-01-01 12:14:00,0.0,0.0,0.0,2.0,116.0,18.0,22.0,22.0,190.0,943.0,47.0,48.0,52.0,95.0,85.0,0.2050411383738963,2015.0,,38.73608423333162,-9.167240945057472,0,24,6.0,1531.0,255.16666666666663,0,0,0
5925,John Williams,male,1999-07-13 10:15:00,0.0,0.0,0.0,2.0,78.0,20.0,22.0,16.0,203.0,907.0,52.0,49.0,64.0,101.0,74.0,0.2005411612583368,2016.0,,38.7567485366909,-9.163770507578148,0,24,5.0,1490.0,298.0,0,0,0
27273,Lina Holstein,female,2001-07-14 06:15:00,0.0,0.0,0.0,2.0,74.0,18.0,21.0,22.0,213.0,967.0,45.0,55.0,49.0,107.0,73.0,0.1885768011787438,2017.0,,38.74842534375672,-9.16618639730656,0,22,4.0,1550.0,387.5,0,0,0
26016,Shirley Brooksher,female,1999-03-30 01:45:00,0.0,0.0,0.0,2.0,99.0,19.0,22.0,23.0,193.0,932.0,50.0,49.0,52.0,109.0,87.0,0.2079394691859539,2016.0,,38.75327115385491,-9.164097680440843,0,24,5.0,1526.0,305.2,0,0,0
16525,Sarah Madigan,female,2001-09-08 06:21:00,0.0,0.0,0.0,2.0,91.0,19.0,22.0,20.0,205.0,891.0,52.0,56.0,53.0,103.0,60.0,0.2069582761288446,2014.0,,38.74862359135516,-9.167679673464754,0,22,7.0,1490.0,212.8571428571429,0,0,0
16733,Cornelius Loucks,male,2001-11-18 10:08:00,0.0,0.0,0.0,2.0,78.0,19.0,21.0,22.0,203.0,885.0,58.0,59.0,48.0,109.0,87.0,0.2020450567558757,2017.0,,38.74557043383288,-9.16972554609704,0,22,4.0,1481.0,370.25,0,0,0
21306,Sue Koehler,female,2001-02-04 07:53:00,0.0,0.0,0.0,2.0,114.0,22.0,22.0,23.0,198.0,825.0,54.0,44.0,54.0,91.0,82.0,0.2027959814712037,2016.0,,38.726351643187165,-9.159090670822197,0,22,5.0,1425.0,285.0,0,0,0
5159,Myra Wallace,female,2000-06-14 02:34:00,0.0,0.0,0.0,2.0,98.0,20.0,22.0,20.0,196.0,966.0,50.0,57.0,55.0,101.0,74.0,0.191129400024907,2020.0,,38.75187683153915,-9.163597676363906,0,23,1.0,1563.0,1563.0,0,0,0
27401,Willie Brown,female,2001-01-23 05:48:00,0.0,0.0,0.0,2.0,124.0,22.0,22.0,16.0,188.0,921.0,48.0,54.0,52.0,103.0,86.0,0.1900868554252567,2015.0,,38.753211149137655,-9.16026237553877,0,22,6.0,1528.0,254.66666666666663,0,0,0
383,Carlos Clear,male,2000-10-11 05:45:00,0.0,0.0,0.0,2.0,109.0,24.0,21.0,20.0,179.0,825.0,45.0,42.0,49.0,106.0,87.0,0.2029641077055816,2017.0,941704.0,38.65659383892592,-9.212561918200104,0,23,4.0,1399.0,349.75,0,0,0
13875,Jerry Fray,male,2001-09-05 11:55:00,0.0,0.0,0.0,2.0,100.0,20.0,21.0,29.0,195.0,904.0,45.0,51.0,52.0,99.0,62.0,0.1904106066378303,2020.0,,38.72755189596438,-9.153905015184822,0,22,1.0,1495.0,1495.0,0,0,0
22386,Ryan Bellerose,male,1999-08-20 03:51:00,0.0,0.0,0.0,2.0,109.0,20.0,21.0,11.0,188.0,878.0,47.0,44.0,53.0,102.0,80.0,0.2037906014717731,2016.0,,38.75403663924023,-9.158722700787113,0,24,5.0,1452.0,290.4,0,0,0
13593,Anthony Gustin,male,2001-08-21 05:13:00,0.0,0.0,0.0,2.0,75.0,20.0,18.0,15.0,208.0,862.0,41.0,51.0,52.0,111.0,88.0,0.2026887938445376,2018.0,,38.75142014013,-9.173009305783278,0,22,3.0,1435.0,478.3333333333333,0,0,0
20489,Sheryl Nguyen,female,2001-11-04 08:21:00,0.0,0.0,0.0,2.0,96.0,23.0,23.0,20.0,189.0,906.0,52.0,45.0,50.0,90.0,80.0,0.2087347253536608,2016.0,,38.65989476489664,-9.197332692830273,0,22,5.0,1471.0,294.2,0,0,0
16575,Ron James,male,1999-01-01 05:53:00,0.0,0.0,0.0,2.0,121.0,22.0,22.0,25.0,187.0,826.0,53.0,57.0,54.0,104.0,93.0,0.1997543077732978,2016.0,,38.665824188709806,-9.20196520153334,0,24,5.0,1449.0,289.8,0,0,0
23939,Robert Welch,male,2001-10-04 06:56:00,0.0,0.0,0.0,2.0,94.0,21.0,21.0,21.0,220.0,912.0,54.0,53.0,46.0,99.0,54.0,0.2026070926661408,2018.0,,38.654981232019615,-9.207252191310346,0,22,3.0,1520.0,506.6666666666667,0,0,0
27152,Staci Reed,female,2000-11-12 10:53:00,0.0,0.0,0.0,2.0,92.0,20.0,21.0,9.0,199.0,957.0,55.0,49.0,44.0,92.0,72.0,0.2007185372266067,2013.0,,38.664421807807095,-9.206327133194996,0,23,8.0,1517.0,189.625,0,0,0
14353,David Plotner,male,2001-10-02 09:43:00,0.0,0.0,0.0,2.0,90.0,18.0,23.0,17.0,208.0,822.0,54.0,46.0,52.0,98.0,76.0,0.1993893763336084,2012.0,,38.66753007311456,-9.207288075109975,0,22,9.0,1405.0,156.11111111111111,0,0,0
25655,Willis Shanholtz,male,1999-09-06 10:04:00,0.0,0.0,0.0,2.0,76.0,20.0,20.0,23.0,230.0,930.0,58.0,57.0,46.0,98.0,86.0,0.1903805246615814,2018.0,,38.75248649205562,-9.160530230006732,0,24,3.0,1538.0,512.6666666666666,0,0,0
26988,Kurt Elliott,male,2001-04-07 04:10:00,0.0,0.0,0.0,2.0,125.0,16.0,23.0,15.0,210.0,945.0,46.0,53.0,57.0,90.0,85.0,0.2073926131425291,2020.0,,38.74149093590053,-9.160807397999475,0,22,1.0,1557.0,1557.0,0,0,0
8953,Melissa Leishman,female,2001-08-04 02:26:00,0.0,0.0,0.0,2.0,115.0,18.0,21.0,18.0,197.0,840.0,42.0,47.0,63.0,104.0,97.0,0.1964621782339012,2017.0,,38.749964079465535,-9.165044191753832,0,22,4.0,1444.0,361.0,0,0,0
16647,James Wilson,male,2000-02-28 01:09:00,0.0,0.0,0.0,2.0,90.0,15.0,21.0,17.0,203.0,933.0,45.0,45.0,45.0,97.0,72.0,0.1941484008078152,2015.0,,38.74939147833896,-9.159983287609936,0,23,6.0,1490.0,248.3333333333333,0,0,0
21156,Kelly Marshall,female,1999-04-20 01:41:00,0.0,0.0,0.0,2.0,89.0,22.0,23.0,18.0,215.0,912.0,49.0,48.0,41.0,96.0,77.0,0.1972545706722355,2018.0,,38.7557639722974,-9.152929948963248,0,24,3.0,1490.0,496.6666666666667,0,0,0
15794,Ricky Gilbert,male,2001-09-05 05:51:00,0.0,0.0,0.0,2.0,110.0,19.0,23.0,23.0,209.0,901.0,60.0,45.0,48.0,98.0,83.0,0.20202377551382,2019.0,,38.65936783260607,-9.20058220800664,0,22,2.0,1513.0,756.5,0,0,0
13122,Linda Harris,female,2001-01-05 03:47:00,0.0,0.0,0.0,2.0,82.0,21.0,22.0,22.0,188.0,860.0,47.0,53.0,44.0,103.0,85.0,0.2062956395273206,2017.0,,38.75476331611908,-9.156632233675316,0,22,4.0,1420.0,355.0,0,0,0
8849,Marguerite Downs,female,2000-06-04 12:15:00,0.0,0.0,0.0,2.0,124.0,20.0,22.0,23.0,198.0,990.0,55.0,48.0,49.0,95.0,67.0,0.2086970270835852,2018.0,,38.74882267003375,-9.158052266131396,0,23,3.0,1602.0,534.0,0,0,0
6937,Willie Galloway,male,2000-10-20 07:20:00,0.0,0.0,0.0,2.0,114.0,21.0,21.0,18.0,202.0,977.0,53.0,47.0,48.0,108.0,91.0,0.2015447281320034,2014.0,,38.742347503446645,-9.1656911690186,0,23,7.0,1588.0,226.8571428571429,0,0,0
893,Maurice Garcia,male,2000-08-20 10:25:00,0.0,0.0,0.0,2.0,88.0,22.0,23.0,20.0,187.0,874.0,47.0,50.0,43.0,100.0,76.0,0.1993558585340404,2020.0,,38.75093885675437,-9.16668316341639,0,23,1.0,1431.0,1431.0,0,0,0
14521,Greg Moreno,male,1999-02-28 01:41:00,0.0,0.0,0.0,2.0,116.0,19.0,22.0,24.0,190.0,921.0,50.0,50.0,51.0,94.0,77.0,0.1948291775401879,2017.0,,38.74258246640027,-9.163869546467645,0,24,4.0,1515.0,378.75,0,0,0
29587,Andy Walker,male,2001-01-25 12:02:00,0.0,0.0,0.0,2.0,119.0,22.0,22.0,18.0,190.0,862.0,51.0,52.0,47.0,100.0,92.0,0.1973268030239284,2018.0,,38.758056920915664,-9.154573559225314,0,22,3.0,1461.0,487.0,0,0,0
14064,Jesse Hamm,male,2001-05-06 09:25:00,0.0,0.0,0.0,2.0,85.0,19.0,21.0,21.0,195.0,891.0,55.0,46.0,58.0,93.0,78.0,0.1971510666861123,2018.0,,38.73806215006386,-9.155491822412092,0,22,3.0,1463.0,487.6666666666667,0,0,0
17040,Elijah Russell,male,2001-06-21 10:21:00,0.0,0.0,0.0,2.0,60.0,23.0,23.0,17.0,198.0,982.0,48.0,46.0,48.0,99.0,71.0,0.1990550826030481,2017.0,,38.72911388603231,-9.16061660903664,0,22,4.0,1521.0,380.25,0,0,0
13334,Jeremy Ward,male,1999-07-02 11:07:00,0.0,0.0,0.0,2.0,69.0,21.0,21.0,24.0,206.0,969.0,41.0,43.0,37.0,106.0,81.0,0.2033149061255935,2016.0,,38.65486789789328,-9.197405187593512,0,24,5.0,1516.0,303.2,0,0,0
16593,Joyce Fanning,female,2000-12-25 10:59:00,0.0,0.0,0.0,2.0,117.0,23.0,22.0,18.0,199.0,925.0,49.0,55.0,42.0,100.0,64.0,0.1905961255466057,2017.0,,38.73699685190559,-9.158365876118042,0,23,4.0,1528.0,382.0,0,0,0
17193,Nathan Hackett,male,2000-08-26 06:33:00,0.0,0.0,0.0,2.0,96.0,24.0,21.0,20.0,202.0,906.0,52.0,50.0,55.0,95.0,91.0,0.2015842504299167,2019.0,,38.740372389141605,-9.161694010705844,0,23,2.0,1500.0,750.0,0,0,0
13351,Nicholas Cornell,male,2001-04-09 02:06:00,0.0,0.0,0.0,2.0,81.0,20.0,23.0,20.0,208.0,974.0,59.0,53.0,57.0,106.0,80.0,0.1991968887633902,2020.0,,38.66019750449128,-9.199495480272054,0,22,1.0,1578.0,1578.0,0,0,0
17893,David Brinson,male,2000-12-06 03:46:00,0.0,0.0,0.0,2.0,118.0,23.0,18.0,30.0,187.0,938.0,49.0,55.0,60.0,114.0,69.0,0.2070057151679471,2016.0,,38.73870847185983,-9.16694609474476,0,23,5.0,1574.0,314.8,0,0,0
8314,Diana Rockwell,female,2000-08-10 12:10:00,0.0,0.0,0.0,2.0,115.0,20.0,22.0,14.0,204.0,971.0,53.0,52.0,48.0,105.0,86.0,0.1991047642089747,2015.0,,38.66021907489889,-9.211414153909455,0,23,6.0,1582.0,263.6666666666667,0,0,0
728,Manuel Tannehill,male,2001-05-22 08:40:00,0.0,0.0,0.0,2.0,81.0,17.0,21.0,20.0,217.0,1030.0,52.0,41.0,45.0,90.0,82.0,0.2054818605339326,2017.0,,38.66003856395101,-9.198854082536952,0,22,4.0,1593.0,398.25,0,0,0
