customer_id,customer_name,customer_gender,customer_birthdate,kids_home,teens_home,number_complaints,distinct_stores_visited,lifetime_spend_groceries,lifetime_spend_electronics,typical_hour,lifetime_spend_vegetables,lifetime_spend_nonalcohol_drinks,lifetime_spend_alcohol_drinks,lifetime_spend_meat,lifetime_spend_fish,lifetime_spend_hygiene,lifetime_spend_videogames,lifetime_total_distinct_products,percentage_of_products_bought_promotion,year_first_transaction,loyalty_card_number,latitude,longitude,is_business,age,years_as_customer,lifetime_spend,spend_per_year,education_level,2D_DBSCAN_clusters,3D_DBSCAN_cluster,cluster
21285,Msc. Teresa Dennis,female,1994-12-03 01:02:00,0.0,0.0,0.0,3.0,7463.0,1271.0,20.0,410.0,393.0,333.0,688.0,720.0,181.0,432.0,469.0,0.150052730118459,2010.0,,38.74013897522309,-9.169529731854295,0,29,11.0,11891.0,1081.0,2,6,6,5
27943,Stephanie Laud,female,1993-05-02 03:36:00,0.0,0.0,0.0,3.0,7492.0,1112.0,20.0,338.0,403.0,503.0,634.0,797.0,335.0,555.0,331.0,0.1622562777467138,2017.0,,38.762081394432016,-9.16653329950981,0,30,4.0,12169.0,3042.25,0,6,6,5
20085,Msc. Steven Levy,male,1994-03-01 11:43:00,0.0,0.0,0.0,3.0,6881.0,1284.0,18.0,422.0,457.0,410.0,746.0,669.0,55.0,442.0,400.0,0.1454406345376764,2012.0,,38.75247780635796,-9.1654081954307,0,29,9.0,11366.0,1262.888888888889,2,6,6,5
9776,Bsc. Kory Bautista,male,1993-11-03 09:13:00,0.0,0.0,0.0,2.0,7330.0,1097.0,18.0,349.0,367.0,458.0,646.0,795.0,271.0,524.0,491.0,0.1498057191817005,2008.0,,38.73798515564075,-9.199309559837964,0,30,13.0,11837.0,910.5384615384615,1,6,6,5
16143,Phd. Edward Taylor,male,1993-04-08 01:15:00,1.0,0.0,0.0,3.0,7008.0,947.0,19.0,442.0,303.0,439.0,630.0,711.0,263.0,414.0,425.0,0.1527206604768555,2012.0,,38.749460364585765,-9.169275408744076,0,30,9.0,11157.0,1239.6666666666667,3,6,6,5
4321,Phd. Robert Mott,male,1995-02-06 05:58:00,1.0,0.0,0.0,3.0,7058.0,1000.0,16.0,443.0,340.0,371.0,678.0,717.0,246.0,503.0,350.0,0.1526629151882424,2007.0,990582.0,38.76336907591072,-9.160964537577458,0,28,14.0,11356.0,811.1428571428571,3,6,6,5
6375,Phd. Gladys Eddy,female,1992-03-29 02:31:00,0.0,0.0,0.0,3.0,7180.0,1229.0,17.0,414.0,355.0,361.0,747.0,719.0,215.0,640.0,699.0,0.156601936751489,2008.0,,38.759205045495406,-9.165503583869455,0,31,13.0,11860.0,912.3076923076924,3,6,6,5
23216,Phd. Yevette Skelton,female,1991-11-08 02:12:00,0.0,0.0,0.0,3.0,6975.0,1058.0,19.0,396.0,415.0,342.0,645.0,639.0,211.0,589.0,394.0,0.1439737454868678,2015.0,,38.75161133806287,-9.165192135588754,0,32,6.0,11270.0,1878.3333333333333,3,6,6,5
27821,Danial Allen,male,1991-11-18 08:42:00,0.0,0.0,0.0,2.0,8074.0,858.0,19.0,432.0,384.0,478.0,701.0,680.0,242.0,568.0,506.0,0.1458108979531293,2013.0,,38.769469714236,-9.10423963160362,0,32,8.0,12417.0,1552.125,0,6,6,5
6182,Msc. Jacob Murphy,male,1995-09-06 11:13:00,1.0,0.0,0.0,4.0,7121.0,836.0,18.0,360.0,395.0,438.0,699.0,654.0,231.0,361.0,573.0,0.1417450601377897,2010.0,969899.0,38.74801565608675,-9.187204857317344,0,28,11.0,11095.0,1008.6363636363636,2,6,6,5
19348,Bsc. Kirby Turner,male,1997-09-20 12:04:00,0.0,0.0,0.0,3.0,6952.0,1305.0,20.0,392.0,427.0,454.0,688.0,662.0,82.0,347.0,528.0,0.1415569228253472,2008.0,,38.766839574465806,-9.093141447785356,0,26,13.0,11309.0,869.9230769230769,1,6,6,5
8887,Bsc. Beatrice Martin,female,1996-03-18 04:36:00,0.0,0.0,0.0,3.0,6605.0,387.0,20.0,406.0,380.0,442.0,716.0,679.0,102.0,528.0,435.0,0.1484267498708872,2015.0,,38.75821388743347,-9.157147467022437,0,27,6.0,10245.0,1707.5,1,6,6,5
17466,Msc. Ben Routhier,male,1992-08-31 06:25:00,0.0,0.0,0.0,3.0,6556.0,1406.0,21.0,488.0,509.0,460.0,680.0,720.0,209.0,397.0,439.0,0.1452047489192053,2006.0,,38.74044989558015,-9.149476912634936,0,31,15.0,11425.0,761.6666666666666,2,6,6,5
17572,Msc. Darla Blackshear,female,1997-08-28 04:06:00,0.0,0.0,0.0,3.0,6539.0,1042.0,21.0,354.0,309.0,355.0,752.0,821.0,122.0,489.0,445.0,0.147943953748197,2014.0,,38.75025190462867,-9.170388730747066,0,26,7.0,10783.0,1540.428571428571,2,6,6,5
23937,Phd. Ronnie Mountain,male,1996-11-24 09:55:00,0.0,0.0,0.0,3.0,7303.0,1163.0,18.0,374.0,298.0,321.0,729.0,714.0,228.0,358.0,579.0,0.1561462214251647,2010.0,,38.74700420894512,-9.193499357249094,0,27,11.0,11488.0,1044.3636363636365,3,6,6,5
1835,Bsc. Barbara Bowen,female,1991-09-08 12:58:00,0.0,0.0,0.0,3.0,6715.0,1133.0,18.0,498.0,385.0,323.0,684.0,713.0,189.0,435.0,596.0,0.1534774120399395,2007.0,983323.0,38.739530192519176,-9.151951315027894,0,32,14.0,11075.0,791.0714285714286,1,6,6,5
5314,Msc. Lauren Riddle,female,1992-11-13 10:54:00,1.0,0.0,0.0,4.0,7871.0,619.0,18.0,419.0,384.0,419.0,700.0,666.0,70.0,576.0,498.0,0.1455865298407361,2015.0,961948.0,38.74084789961781,-9.158997284107128,0,31,6.0,11724.0,1954.0,2,6,6,5
29860,Manuel Moriarity,male,1992-10-03 04:39:00,1.0,0.0,0.0,3.0,6584.0,1018.0,19.0,378.0,434.0,454.0,757.0,654.0,231.0,580.0,405.0,0.1518659534954764,2011.0,,38.745258283880695,-9.194383031561944,0,31,10.0,11090.0,1109.0,0,6,6,5
20590,Msc. Monica Montano,female,1992-02-29 10:01:00,0.0,0.0,0.0,4.0,6769.0,1145.0,18.0,332.0,318.0,430.0,677.0,645.0,286.0,494.0,469.0,0.145422509837705,2010.0,,38.739613590351794,-9.19816928295564,0,31,11.0,11096.0,1008.7272727272727,2,6,6,5
646,Phd. Mary Gamache,female,1992-08-09 01:08:00,1.0,0.0,0.0,3.0,7088.0,1005.0,18.0,483.0,316.0,339.0,575.0,727.0,233.0,536.0,504.0,0.1540710099790419,2013.0,961820.0,38.76580322495223,-9.101793502988066,0,31,8.0,11302.0,1412.75,3,6,6,5
15157,Phd. Robert Gaines,male,1997-10-31 04:16:00,1.0,0.0,0.0,2.0,6611.0,943.0,17.0,426.0,453.0,431.0,769.0,710.0,372.0,553.0,444.0,0.1367831513018418,2008.0,,38.72796856316141,-9.146440581454442,0,26,13.0,11268.0,866.7692307692307,3,6,6,5
9129,Msc. Judy Estrada,female,1996-09-09 01:41:00,0.0,0.0,0.0,3.0,6770.0,883.0,19.0,367.0,430.0,426.0,685.0,643.0,124.0,684.0,640.0,0.1423399281321982,2007.0,,38.73405855463526,-9.190183615797809,0,27,14.0,11012.0,786.5714285714286,2,6,6,5
17322,Msc. Gerri Wyatt,female,1991-07-05 11:08:00,1.0,0.0,0.0,3.0,6865.0,1048.0,19.0,317.0,382.0,423.0,729.0,669.0,391.0,549.0,475.0,0.1418729606692569,2010.0,,38.76372817942261,-9.15696895198564,0,32,11.0,11373.0,1033.909090909091,2,6,6,5
12647,Bsc. Gregory Kling,male,1991-10-10 09:07:00,0.0,0.0,0.0,3.0,7057.0,774.0,19.0,333.0,391.0,430.0,688.0,730.0,33.0,383.0,644.0,0.1504966831623101,2009.0,,38.733182722553,-9.14020365728942,0,32,12.0,10819.0,901.5833333333334,1,6,6,5
27233,Sue Simon,female,1991-08-25 04:12:00,0.0,0.0,0.0,3.0,7837.0,1041.0,20.0,355.0,370.0,382.0,685.0,738.0,136.0,467.0,619.0,0.1465306851503484,2008.0,,38.75609742941516,-9.167765151792352,0,32,13.0,12011.0,923.9230769230768,0,6,6,5
20195,Phd. George Schwenck,male,1990-08-29 08:07:00,0.0,0.0,0.0,3.0,6555.0,1072.0,19.0,458.0,306.0,409.0,763.0,673.0,270.0,463.0,479.0,0.1503315477554112,2013.0,,38.72945452751275,-9.18581192593423,0,33,8.0,10969.0,1371.125,3,6,6,5
13204,Bsc. Tammy Clemments,female,1996-03-30 12:03:00,0.0,0.0,0.0,2.0,7649.0,804.0,19.0,407.0,446.0,405.0,773.0,711.0,142.0,414.0,572.0,0.1483538065904882,2012.0,,38.7501234832439,-9.171873570335803,0,27,9.0,11751.0,1305.6666666666667,1,6,6,5
25732,Deborah Blank,female,1993-11-12 08:37:00,0.0,0.0,0.0,3.0,6532.0,1247.0,17.0,380.0,436.0,364.0,592.0,591.0,268.0,465.0,511.0,0.1460316524522497,2011.0,,38.77277718087184,-9.09862989001063,0,30,10.0,10875.0,1087.5,0,6,6,5
9224,Msc. Gary Celedon,male,1991-07-05 01:13:00,1.0,0.0,0.0,2.0,6220.0,911.0,20.0,386.0,280.0,394.0,758.0,682.0,125.0,497.0,419.0,0.1589579216558548,2006.0,,38.755158625463565,-9.095877540816414,0,32,15.0,10253.0,683.5333333333333,2,6,6,5
25993,Leticia Fitzgerald,female,1990-09-04 05:32:00,0.0,0.0,1.0,3.0,7680.0,886.0,18.0,403.0,399.0,368.0,732.0,704.0,291.0,519.0,424.0,0.143433005241435,2011.0,,38.754920222333,-9.182904688880525,0,33,10.0,11982.0,1198.2,0,6,6,5
6660,Msc. Gerardo Simpson,male,1990-07-09 02:42:00,0.0,0.0,0.0,3.0,7961.0,823.0,20.0,356.0,426.0,418.0,755.0,640.0,4.0,433.0,549.0,0.1490465901861142,2006.0,,38.73726145985483,-9.14124937762985,0,33,15.0,11816.0,787.7333333333333,2,6,6,5
1150,Bsc. Michael Coffey,male,1991-05-06 09:30:00,0.0,0.0,0.0,4.0,7306.0,1136.0,18.0,339.0,397.0,417.0,794.0,779.0,302.0,670.0,358.0,0.1489327195574068,2010.0,960142.0,38.73528300912503,-9.194228058524663,0,32,11.0,12140.0,1103.6363636363635,1,6,6,5
14774,Bsc. James Maust,male,1992-01-20 05:38:00,0.0,0.0,0.0,3.0,7611.0,1074.0,19.0,461.0,426.0,400.0,633.0,739.0,209.0,428.0,624.0,0.1502076044084951,2013.0,,38.771457771360936,-9.092273928293327,0,31,8.0,11981.0,1497.625,1,6,6,5
1589,Msc. Emily Hernandez,female,1996-01-05 04:10:00,0.0,0.0,0.0,4.0,7360.0,937.0,21.0,394.0,455.0,371.0,645.0,743.0,256.0,454.0,556.0,0.1440358247236871,2006.0,917792.0,38.74392490296654,-9.194243427060856,0,27,15.0,11615.0,774.3333333333334,2,6,6,5
5223,Msc. Rosa Stevens,female,1990-11-23 03:51:00,1.0,0.0,0.0,2.0,7614.0,1063.0,17.0,417.0,306.0,366.0,725.0,720.0,291.0,343.0,504.0,0.1365852089190196,2009.0,932359.0,38.74755618599414,-9.168587990523427,0,33,12.0,11845.0,987.0833333333334,2,6,6,5
27326,Norma Pinion,female,1993-11-09 06:52:00,0.0,0.0,0.0,4.0,6481.0,909.0,19.0,429.0,326.0,328.0,639.0,651.0,133.0,690.0,526.0,0.150666945335154,2007.0,,38.730208025359545,-9.200488853815813,0,30,14.0,10586.0,756.1428571428571,0,6,6,5
25190,John Luechtefeld,male,1992-01-12 07:46:00,0.0,0.0,0.0,3.0,7562.0,1362.0,19.0,361.0,426.0,409.0,673.0,662.0,123.0,648.0,556.0,0.1511421520529573,2012.0,,38.737004320624365,-9.146553607103977,0,31,9.0,12226.0,1358.4444444444443,0,6,6,5
18198,Msc. Joe Schueller,male,1994-04-12 06:44:00,1.0,0.0,0.0,3.0,6452.0,583.0,20.0,422.0,373.0,472.0,581.0,736.0,239.0,470.0,511.0,0.1435514187968576,2011.0,,38.73805886482957,-9.201214309237042,0,29,10.0,10328.0,1032.8,2,6,6,5
14565,Bsc. Hilma Myron,female,1994-01-19 06:06:00,0.0,0.0,0.0,3.0,7000.0,1232.0,20.0,422.0,396.0,357.0,650.0,810.0,80.0,350.0,558.0,0.1389999639795915,2011.0,,38.75385091606904,-9.18281881436181,0,29,10.0,11297.0,1129.7,1,6,6,5
283,Bsc. Chris Wright,male,1996-08-30 10:09:00,1.0,0.0,0.0,4.0,7615.0,775.0,19.0,402.0,374.0,272.0,690.0,711.0,366.0,574.0,653.0,0.1504526906399668,2011.0,988297.0,38.74540542242301,-9.180453425727912,0,27,10.0,11779.0,1177.9,1,6,6,5
23003,Phd. Terrance Sanchez,male,1993-05-08 09:57:00,0.0,0.0,0.0,3.0,6922.0,977.0,19.0,471.0,325.0,435.0,614.0,697.0,315.0,484.0,507.0,0.1480315746807101,2003.0,,38.76145078987003,-9.10019257398858,0,30,18.0,11240.0,624.4444444444445,3,6,6,5
22163,Bsc. Travis Muir,male,1994-06-07 10:10:00,1.0,0.0,0.0,3.0,7633.0,935.0,20.0,354.0,350.0,381.0,718.0,706.0,4.0,614.0,376.0,0.1434284556571111,2008.0,,38.75501639032257,-9.177776617080172,0,29,13.0,11695.0,899.6153846153846,1,6,6,5
15296,Phd. Leslie Sargent,female,1993-11-06 02:38:00,0.0,0.0,0.0,3.0,7101.0,769.0,17.0,376.0,440.0,447.0,617.0,741.0,276.0,301.0,495.0,0.1585860365560486,2008.0,,38.76197148814295,-9.092225448042688,0,30,13.0,11068.0,851.3846153846154,3,6,6,5
11988,Msc. John Tolston,male,1992-04-23 03:02:00,0.0,0.0,0.0,3.0,7641.0,1040.0,20.0,416.0,376.0,448.0,737.0,691.0,28.0,753.0,564.0,0.1470089488640238,2013.0,,38.73690785053828,-9.152287755877555,0,31,8.0,12130.0,1516.25,2,6,6,5
24251,Catherine Joyce,female,1997-06-10 04:22:00,0.0,0.0,0.0,3.0,6801.0,1185.0,20.0,447.0,289.0,375.0,722.0,722.0,135.0,484.0,498.0,0.1612058961818646,2012.0,,38.73923782299183,-9.191507711035742,0,26,9.0,11160.0,1240.0,0,6,6,5
27198,Peggy Goff,female,1997-04-07 10:05:00,0.0,0.0,0.0,3.0,6329.0,1260.0,20.0,450.0,364.0,397.0,688.0,720.0,358.0,524.0,600.0,0.1454619670068254,2010.0,,38.74933583606835,-9.168467075626808,0,26,11.0,11090.0,1008.181818181818,0,6,6,5
1594,Bsc. Brent Genova,male,1991-10-15 09:58:00,0.0,0.0,0.0,3.0,6795.0,1077.0,20.0,441.0,366.0,344.0,775.0,769.0,285.0,401.0,365.0,0.1505279144407533,2005.0,959343.0,38.76920599525865,-9.102589095199844,0,32,16.0,11253.0,703.3125,1,6,6,5
8048,Phd. Ethel Carrere,female,1991-09-10 06:50:00,0.0,0.0,0.0,2.0,6188.0,783.0,21.0,397.0,381.0,347.0,717.0,667.0,149.0,571.0,580.0,0.1471727639378368,2005.0,,38.752253959395176,-9.170479624996428,0,32,16.0,10200.0,637.5,3,6,6,5
28499,Benjamin Jackson,male,1993-03-30 07:44:00,0.0,0.0,0.0,3.0,8148.0,987.0,20.0,471.0,353.0,382.0,692.0,654.0,289.0,392.0,289.0,0.1443943453669976,2008.0,,38.76742447271824,-9.096387526245598,0,30,13.0,12368.0,951.3846153846154,0,6,6,5
377,Phd. Karen Salmon,female,1996-03-20 03:18:00,0.0,0.0,0.0,3.0,7256.0,680.0,19.0,374.0,494.0,404.0,691.0,577.0,208.0,599.0,532.0,0.1498732066023276,2016.0,923329.0,38.7574870948029,-9.095365406669329,0,27,5.0,11283.0,2256.6,3,6,6,5
24147,Eugene Hurley,male,1990-01-30 08:55:00,0.0,0.0,0.0,3.0,7442.0,867.0,18.0,316.0,327.0,568.0,782.0,742.0,250.0,537.0,616.0,0.1555210214489754,2009.0,,38.73001687022852,-9.205072001291628,0,33,12.0,11831.0,985.9166666666666,0,6,6,5
26640,Scott Shaw,male,1996-10-29 02:25:00,0.0,0.0,0.0,3.0,7489.0,899.0,20.0,283.0,428.0,355.0,651.0,710.0,148.0,497.0,634.0,0.1606395930858297,2006.0,,38.76254101094023,-9.159064774175578,0,27,15.0,11460.0,764.0,0,6,6,5
19975,Msc. Martha Gagnon,female,1996-10-15 08:17:00,0.0,0.0,0.0,3.0,8173.0,708.0,18.0,406.0,328.0,428.0,668.0,716.0,258.0,416.0,438.0,0.1528349006690869,2013.0,,38.73729756108882,-9.15518147406297,0,27,8.0,12101.0,1512.625,2,6,6,5
1816,Bsc. Juan Sakkinen,male,1994-04-24 07:27:00,0.0,0.0,0.0,3.0,7397.0,967.0,19.0,433.0,427.0,350.0,723.0,744.0,407.0,606.0,512.0,0.1475099408482883,2008.0,999943.0,38.730536651170375,-9.146580815624262,0,29,13.0,12054.0,927.2307692307692,1,6,6,5
18746,Phd. Courtney Latus,female,1994-08-30 09:29:00,0.0,0.0,0.0,2.0,7558.0,945.0,20.0,373.0,453.0,397.0,685.0,705.0,275.0,454.0,537.0,0.1481104603167791,2011.0,,38.75686469948298,-9.165147465019468,0,29,10.0,11845.0,1184.5,3,6,6,5
12797,Phd. Amy Newsom,female,1993-11-13 05:06:00,1.0,0.0,0.0,4.0,6355.0,851.0,17.0,472.0,363.0,412.0,652.0,700.0,249.0,334.0,428.0,0.1551305626906474,2010.0,,38.76454901255303,-9.104241344293976,0,30,11.0,10388.0,944.3636363636364,3,6,6,5
9732,Msc. Mark Fuller,male,1993-09-07 08:42:00,0.0,0.0,0.0,3.0,6734.0,1232.0,20.0,320.0,338.0,384.0,717.0,661.0,260.0,539.0,484.0,0.1486098141171025,2006.0,,38.7394432450847,-9.190397123170168,0,30,15.0,11185.0,745.6666666666666,2,6,6,5
28196,Matthew Whitcher,male,1991-12-31 05:44:00,0.0,0.0,0.0,3.0,7165.0,919.0,19.0,354.0,297.0,342.0,759.0,717.0,27.0,539.0,482.0,0.1516201828601477,2011.0,,38.73770354836311,-9.15806445035544,0,32,10.0,11119.0,1111.9,0,6,6,5
14304,Bsc. Thomas Vanwinkle,male,1995-10-22 03:48:00,0.0,0.0,0.0,3.0,7329.0,722.0,18.0,469.0,408.0,400.0,691.0,772.0,265.0,533.0,449.0,0.1520726181831269,2007.0,,38.743371196155344,-9.15017117909492,0,28,14.0,11589.0,827.7857142857143,1,6,6,5
10414,Bsc. Leonard Minor,male,1996-07-13 10:28:00,0.0,0.0,0.0,3.0,7430.0,1175.0,19.0,354.0,425.0,345.0,640.0,593.0,61.0,429.0,474.0,0.1463238491585341,2009.0,,38.76495116252327,-9.09230408077298,0,27,12.0,11452.0,954.3333333333334,1,6,6,5
26275,Kathryn Kampman,female,1996-10-25 10:11:00,0.0,0.0,0.0,3.0,6437.0,914.0,19.0,395.0,432.0,445.0,627.0,691.0,313.0,506.0,703.0,0.1492013977660999,2013.0,,38.76671163183061,-9.170869465874912,0,27,8.0,10760.0,1345.0,0,6,6,5
27621,Mildred Godfrey,female,1995-02-08 10:09:00,0.0,0.0,0.0,3.0,8048.0,1203.0,19.0,364.0,430.0,372.0,648.0,754.0,275.0,643.0,466.0,0.1491147663224604,2008.0,,38.76122717064731,-9.168978031074234,0,28,13.0,12737.0,979.7692307692308,0,6,6,5
8937,Msc. Maria Gray,female,1995-02-23 06:30:00,0.0,0.0,0.0,4.0,6299.0,1118.0,20.0,375.0,482.0,400.0,770.0,778.0,350.0,465.0,377.0,0.1568789680973744,2006.0,,38.7466659667857,-9.201471992355073,0,28,15.0,11037.0,735.8,2,6,6,5
22495,Msc. Brian Vessels,male,1991-12-24 01:19:00,0.0,0.0,0.0,2.0,6816.0,1134.0,18.0,393.0,258.0,331.0,691.0,693.0,160.0,474.0,586.0,0.1555975775855043,2012.0,,38.73500982002072,-9.193990039968876,0,32,9.0,10950.0,1216.6666666666667,2,6,6,5
325,Bsc. Jose Foster,male,1995-01-07 02:44:00,0.0,0.0,0.0,2.0,7140.0,817.0,19.0,346.0,337.0,477.0,683.0,642.0,222.0,692.0,480.0,0.1501334298082815,2012.0,973602.0,38.73242532189456,-9.187458774422856,0,28,9.0,11356.0,1261.7777777777778,1,6,6,5
10293,Phd. Maureen Grant,female,1997-09-13 02:19:00,0.0,0.0,0.0,3.0,6754.0,597.0,20.0,419.0,492.0,454.0,672.0,726.0,77.0,535.0,411.0,0.1503325731533486,2014.0,,38.74101423814682,-9.14714935116013,0,26,7.0,10726.0,1532.2857142857142,3,6,6,5
26104,Summer Bell,female,1993-06-18 03:35:00,0.0,0.0,0.0,4.0,7141.0,680.0,19.0,423.0,409.0,402.0,768.0,609.0,149.0,383.0,446.0,0.1527020595085523,2007.0,,38.75430242676204,-9.17417184066906,0,30,14.0,10964.0,783.1428571428571,0,6,6,5
13137,Bsc. Bertie Miller,female,1996-02-14 04:40:00,0.0,0.0,0.0,2.0,6972.0,1086.0,16.0,362.0,332.0,426.0,789.0,746.0,130.0,483.0,504.0,0.1591946726241898,2010.0,,38.73498941295651,-9.190488728444434,0,27,11.0,11326.0,1029.6363636363635,1,6,6,5
12653,Bsc. Faye Wilson,female,1990-11-25 04:45:00,1.0,0.0,0.0,4.0,6845.0,953.0,19.0,436.0,392.0,503.0,664.0,703.0,361.0,564.0,541.0,0.1511577077921378,2007.0,,38.74618371440978,-9.2016385678374,0,33,14.0,11421.0,815.7857142857143,1,6,6,5
14769,Phd. Bessie Summers,female,1991-08-08 09:27:00,0.0,0.0,0.0,3.0,7381.0,807.0,17.0,332.0,426.0,481.0,704.0,698.0,344.0,602.0,393.0,0.146056406889937,2009.0,,38.76138109960648,-9.094813017361684,0,32,12.0,11775.0,981.25,3,6,6,5
15713,Bsc. Gloria Aaron,female,1995-07-18 10:09:00,0.0,0.0,0.0,3.0,6351.0,1107.0,19.0,347.0,362.0,388.0,767.0,669.0,117.0,375.0,522.0,0.1549165410483436,2006.0,,38.745576800122784,-9.18658934226618,0,28,15.0,10483.0,698.8666666666667,1,6,6,5
16631,Msc. Tyron Rosado,male,1992-04-07 03:26:00,0.0,0.0,0.0,3.0,6084.0,1186.0,19.0,406.0,275.0,391.0,691.0,667.0,238.0,440.0,558.0,0.1451453330495594,2009.0,,38.73707062457411,-9.140576767256116,0,31,12.0,10378.0,864.8333333333334,2,6,6,5
18678,Phd. Griselda Picard,female,1993-08-17 02:17:00,0.0,0.0,0.0,2.0,6948.0,1278.0,17.0,445.0,346.0,292.0,653.0,720.0,250.0,468.0,516.0,0.1492665867047571,2009.0,,38.75767903212563,-9.09862989001063,0,30,12.0,11400.0,950.0,3,6,6,5
8403,Msc. Leslie Lam,male,1991-02-04 03:33:00,0.0,0.0,0.0,4.0,7807.0,1015.0,19.0,399.0,417.0,414.0,696.0,711.0,239.0,652.0,426.0,0.1522067676815504,2008.0,,38.737576942096254,-9.191799185530169,0,32,13.0,12350.0,950.0,2,6,6,5
28312,Barbara Barton,female,1996-05-19 03:28:00,0.0,0.0,0.0,4.0,7131.0,715.0,19.0,425.0,291.0,318.0,732.0,652.0,40.0,258.0,401.0,0.1462137872495381,2011.0,,38.76863459206727,-9.160913254397814,0,27,10.0,10562.0,1056.2,0,6,6,5
8817,Phd. Sarah Thompson,female,1991-11-08 09:47:00,0.0,0.0,0.0,3.0,7697.0,967.0,21.0,408.0,464.0,434.0,611.0,676.0,137.0,628.0,558.0,0.1500406384571185,2011.0,,38.75320876257053,-9.163080727823186,0,32,10.0,12022.0,1202.2,3,6,6,5
3190,Bsc. Tammy Sizemore,female,1993-05-05 12:53:00,0.0,0.0,0.0,2.0,6440.0,831.0,20.0,481.0,414.0,361.0,659.0,683.0,56.0,417.0,258.0,0.1414121118475491,2007.0,907201.0,38.74360613130914,-9.157110636038404,0,30,14.0,10342.0,738.7142857142857,1,6,6,5
5152,Phd. Delores Helms,female,1997-10-18 08:58:00,0.0,0.0,0.0,3.0,6928.0,1323.0,19.0,324.0,302.0,560.0,630.0,693.0,98.0,446.0,332.0,0.1575553505000442,2010.0,941337.0,38.74122694102154,-9.194679749262836,0,26,11.0,11304.0,1027.6363636363635,3,6,6,5
5778,Phd. Don Fuller,male,1996-11-23 12:52:00,0.0,0.0,0.0,3.0,7142.0,876.0,19.0,461.0,412.0,410.0,658.0,730.0,221.0,485.0,469.0,0.1535542286297317,2018.0,969764.0,38.76875942827864,-9.105167125439232,0,27,3.0,11395.0,3798.3333333333335,3,6,6,5
23298,Msc. Jack Johnson,male,1994-10-02 05:36:00,0.0,0.0,0.0,2.0,7944.0,1154.0,19.0,437.0,327.0,492.0,699.0,705.0,80.0,624.0,416.0,0.1555159370394342,2006.0,,38.74666197664536,-9.201265069082256,0,29,15.0,12462.0,830.8,2,6,6,5
16443,Msc. James Chouinard,male,1997-10-17 06:13:00,0.0,0.0,0.0,3.0,6436.0,1136.0,20.0,457.0,411.0,304.0,735.0,662.0,145.0,219.0,485.0,0.1461885885467551,2013.0,,38.77000413422807,-9.17042878328683,0,26,8.0,10505.0,1313.125,2,6,6,5
1592,Phd. Doris Richins,female,1993-07-28 11:16:00,0.0,0.0,0.0,3.0,6432.0,999.0,19.0,431.0,372.0,413.0,747.0,753.0,204.0,289.0,368.0,0.1459296150103254,2002.0,910306.0,38.74455011138517,-9.163041480876236,0,30,19.0,10640.0,560.0,3,6,6,5
15101,Msc. Nancy Berg,female,1994-11-28 04:56:00,0.0,0.0,0.0,4.0,6778.0,876.0,21.0,379.0,473.0,375.0,623.0,736.0,77.0,722.0,503.0,0.1455671929599823,2009.0,,38.75800714479697,-9.091423069914072,0,29,12.0,11039.0,919.9166666666666,2,6,6,5
23316,Msc. Matthew Amador,male,1990-12-29 08:49:00,1.0,0.0,0.0,3.0,6700.0,882.0,19.0,400.0,473.0,445.0,701.0,661.0,5.0,606.0,618.0,0.147031668609419,2005.0,,38.73427944716888,-9.14557973902214,0,33,16.0,10873.0,679.5625,2,6,6,5
1048,Msc. Gary Fry,male,1996-03-04 05:31:00,0.0,0.0,0.0,3.0,6910.0,558.0,18.0,385.0,337.0,400.0,744.0,652.0,119.0,489.0,627.0,0.1500943567860649,2010.0,998942.0,38.73203902648336,-9.189022293703848,0,27,11.0,10594.0,963.0909090909092,2,6,6,5
6232,Bsc. Mario Rowe,male,1992-05-06 03:38:00,1.0,0.0,0.0,3.0,7046.0,641.0,20.0,373.0,462.0,407.0,738.0,640.0,306.0,485.0,406.0,0.1472625117980017,2014.0,944091.0,38.75977342365962,-9.09862989001063,0,31,7.0,11098.0,1585.428571428571,1,6,6,5
27025,Josephine Laban,female,1993-01-20 09:00:00,0.0,0.0,0.0,3.0,7129.0,1060.0,19.0,397.0,331.0,363.0,760.0,632.0,222.0,705.0,439.0,0.1479322849211963,2013.0,,38.74948880300555,-9.177262500929734,0,30,8.0,11599.0,1449.875,0,6,6,5
19727,Msc. April Oliver,female,1995-03-06 06:35:00,0.0,0.0,0.0,4.0,7932.0,1197.0,21.0,369.0,382.0,441.0,686.0,701.0,364.0,565.0,445.0,0.1476213491842855,2006.0,,38.76791604130015,-9.164304014416825,0,28,15.0,12637.0,842.4666666666667,2,6,6,5
24753,Betty Pilgrim,female,1997-05-01 07:06:00,0.0,0.0,0.0,4.0,7300.0,1414.0,18.0,389.0,391.0,411.0,677.0,748.0,30.0,590.0,644.0,0.149824423663607,2011.0,,38.763803189216674,-9.104003476448602,0,26,10.0,11950.0,1195.0,0,6,6,5
8739,Msc. Patricia Murphy,female,1996-04-18 12:00:00,0.0,0.0,0.0,4.0,6998.0,847.0,18.0,331.0,392.0,396.0,755.0,705.0,58.0,487.0,614.0,0.1486721016602888,2012.0,,38.75422257739581,-9.09862989001063,0,27,9.0,10969.0,1218.7777777777778,2,6,6,5
22898,Bsc. Ronald Thurston,male,1995-06-28 04:17:00,0.0,0.0,0.0,3.0,6816.0,1019.0,20.0,399.0,472.0,447.0,725.0,713.0,379.0,536.0,426.0,0.1409227148590366,2008.0,,38.77105704505736,-9.09544334470246,0,28,13.0,11506.0,885.0769230769231,1,6,6,5
13878,Msc. Shelia Servant,female,1997-02-06 06:02:00,0.0,0.0,0.0,3.0,6601.0,1078.0,20.0,382.0,404.0,386.0,769.0,609.0,156.0,414.0,408.0,0.1448831035523895,2012.0,,38.769503933211,-9.164169298070766,0,26,9.0,10799.0,1199.888888888889,2,6,6,5
11897,Phd. William Thompson,male,1994-11-21 11:48:00,0.0,0.0,0.0,4.0,7637.0,883.0,20.0,409.0,413.0,422.0,715.0,747.0,327.0,448.0,440.0,0.1518343291025071,2011.0,,38.7342565971297,-9.202356931048223,0,29,10.0,12001.0,1200.1,3,6,6,5
29549,James Goldman,male,1994-07-21 12:10:00,0.0,0.0,0.0,4.0,8342.0,862.0,20.0,391.0,474.0,326.0,763.0,675.0,89.0,415.0,457.0,0.1447285955575452,2016.0,,38.75538210786076,-9.09862989001063,0,29,5.0,12337.0,2467.4,0,6,6,5
9084,Msc. Jason Griggs,male,1992-11-29 02:33:00,1.0,0.0,0.0,2.0,6907.0,750.0,19.0,323.0,372.0,340.0,730.0,605.0,179.0,448.0,438.0,0.1423733783870099,2011.0,,38.73706388966625,-9.19065142531434,0,31,10.0,10654.0,1065.4,2,6,6,5
20519,Phd. Elizabeth Corlew,female,1995-11-15 01:00:00,0.0,0.0,0.0,3.0,7207.0,1097.0,17.0,498.0,326.0,340.0,744.0,728.0,152.0,418.0,513.0,0.150779280144744,2009.0,,38.7460513534005,-9.1986583433395,0,28,12.0,11510.0,959.1666666666666,3,6,6,5
5933,Msc. Sandra Glover,female,1992-02-23 08:32:00,0.0,0.0,0.0,3.0,7036.0,1087.0,18.0,469.0,361.0,459.0,751.0,603.0,76.0,399.0,606.0,0.1544289713621576,2008.0,904067.0,38.764234337753294,-9.164427690092912,0,31,13.0,11241.0,864.6923076923077,2,6,6,5
28764,Kathi Griffin,female,1993-03-24 06:10:00,0.0,0.0,0.0,3.0,6692.0,1225.0,20.0,375.0,398.0,399.0,796.0,773.0,302.0,460.0,300.0,0.1559871128929955,2009.0,,38.758456640913096,-9.170291943258848,0,30,12.0,11420.0,951.6666666666666,0,6,6,5
15659,Msc. Allen Yoon,male,1992-01-22 09:54:00,0.0,0.0,0.0,3.0,6682.0,1029.0,20.0,464.0,374.0,434.0,764.0,711.0,172.0,172.0,222.0,0.1555093376421219,2009.0,,38.72995422933091,-9.155685361421146,0,31,12.0,10802.0,900.1666666666666,2,6,6,5
23318,Bsc. Tiffany Crowe,female,1991-03-24 02:44:00,0.0,0.0,0.0,4.0,6814.0,764.0,17.0,365.0,394.0,344.0,659.0,650.0,293.0,489.0,359.0,0.1455957691453104,2007.0,,38.72822671952768,-9.19346893853858,0,32,14.0,10772.0,769.4285714285714,1,6,6,5
7596,Bsc. Robby Smallwood,male,1995-06-03 05:11:00,0.0,0.0,0.0,4.0,7014.0,965.0,19.0,380.0,455.0,473.0,647.0,688.0,136.0,539.0,590.0,0.1431059150230444,2014.0,,38.75483748893844,-9.093797179129302,0,28,7.0,11297.0,1613.857142857143,1,6,6,5
10794,Bsc. David Staggs,male,1991-10-01 10:04:00,0.0,0.0,0.0,4.0,6668.0,596.0,18.0,463.0,528.0,451.0,755.0,728.0,20.0,764.0,633.0,0.144944301125567,2012.0,,38.74869027071702,-9.176209857537472,0,32,9.0,10973.0,1219.2222222222222,1,6,6,5
16100,Msc. Carlos Williams,male,1992-10-23 10:04:00,0.0,0.0,0.0,2.0,7529.0,1055.0,20.0,394.0,407.0,392.0,711.0,625.0,96.0,480.0,569.0,0.150903781420597,2009.0,,38.75601166045845,-9.096134169350844,0,31,12.0,11689.0,974.0833333333334,2,6,6,5
15306,Bsc. Josh Donovan,male,1997-08-13 02:33:00,0.0,0.0,0.0,3.0,7275.0,882.0,18.0,378.0,359.0,404.0,765.0,680.0,258.0,520.0,639.0,0.1468176704430099,2007.0,,38.75424278197429,-9.093340224014366,0,26,14.0,11521.0,822.9285714285714,1,6,6,5
3116,Msc. Cathryn Farrell,female,1995-07-11 11:58:00,0.0,0.0,0.0,3.0,6950.0,995.0,17.0,364.0,340.0,423.0,742.0,655.0,203.0,528.0,648.0,0.1557696400579402,2011.0,991356.0,38.7460610979652,-9.192923247471809,0,28,10.0,11200.0,1120.0,2,6,6,5
4995,Phd. John Bitto,male,1992-06-19 02:00:00,0.0,0.0,0.0,2.0,6768.0,745.0,20.0,459.0,363.0,475.0,685.0,580.0,165.0,471.0,574.0,0.1540850512993556,2012.0,949803.0,38.732626674263805,-9.145995486770753,0,31,9.0,10711.0,1190.111111111111,3,6,6,5
8651,Bsc. Martha Livingston,female,1994-02-27 04:59:00,0.0,0.0,0.0,3.0,6981.0,676.0,19.0,444.0,451.0,544.0,657.0,728.0,200.0,563.0,454.0,0.1503519673686091,2015.0,,38.73187353648952,-9.141703928368951,0,29,6.0,11244.0,1874.0,1,6,6,5
12750,Bsc. Rosie Wallace,female,1991-08-17 12:06:00,0.0,0.0,0.0,2.0,7980.0,1418.0,16.0,456.0,353.0,444.0,632.0,710.0,184.0,427.0,382.0,0.1492255494282587,2009.0,,38.75707768929313,-9.093308387273522,0,32,12.0,12604.0,1050.3333333333333,1,6,6,5
1212,Phd. Victor Vincent,male,1997-09-05 04:53:00,0.0,0.0,0.0,2.0,7471.0,1259.0,18.0,377.0,445.0,396.0,745.0,706.0,203.0,492.0,542.0,0.1468154289904073,2012.0,911329.0,38.74207240591274,-9.142224627033222,0,26,9.0,12094.0,1343.7777777777778,3,6,6,5
8597,Phd. Charles Anderson,male,1996-02-08 03:36:00,0.0,0.0,0.0,3.0,7707.0,800.0,20.0,437.0,534.0,306.0,649.0,693.0,94.0,436.0,459.0,0.1577081093551277,2011.0,,38.73197005224582,-9.154061591516369,0,27,10.0,11656.0,1165.6,3,6,6,5
6303,Bsc. Mae Burke,female,1992-11-09 07:27:00,1.0,0.0,0.0,4.0,7266.0,1000.0,18.0,440.0,364.0,351.0,706.0,681.0,21.0,569.0,463.0,0.1515710778818998,2010.0,996422.0,38.75434903789351,-9.164800910591811,0,31,11.0,11398.0,1036.1818181818182,1,6,6,5
5866,Phd. Brad Lee,male,1996-02-10 02:05:00,0.0,0.0,0.0,4.0,7016.0,1231.0,20.0,365.0,456.0,393.0,678.0,701.0,142.0,595.0,537.0,0.154796380871167,2009.0,926028.0,38.74500237728194,-9.172256108125108,0,27,12.0,11577.0,964.75,3,6,6,5
28926,Susan Webb,female,1996-08-20 09:34:00,0.0,0.0,0.0,3.0,6190.0,1274.0,18.0,347.0,302.0,544.0,639.0,667.0,286.0,523.0,205.0,0.1526243280791062,2015.0,,38.76707580225359,-9.09862989001063,0,27,6.0,10772.0,1795.3333333333333,0,6,6,5
3685,Phd. Violet Quintero,female,1996-04-09 03:31:00,0.0,0.0,0.0,3.0,7247.0,477.0,20.0,425.0,352.0,435.0,684.0,704.0,301.0,517.0,515.0,0.1485194595811877,2009.0,906712.0,38.765652740442434,-9.170345596939631,0,27,12.0,11142.0,928.5,3,6,6,5
11636,Bsc. Kimberly Macpherson,female,1997-09-14 09:25:00,0.0,0.0,0.0,3.0,6681.0,996.0,19.0,369.0,393.0,382.0,681.0,681.0,152.0,496.0,362.0,0.1608727618316649,2013.0,,38.75584897005316,-9.10326451544887,0,26,8.0,10831.0,1353.875,1,6,6,5
14639,Phd. Wendy Campbell,female,1995-05-15 09:09:00,0.0,0.0,0.0,3.0,7404.0,1090.0,18.0,395.0,449.0,450.0,665.0,795.0,223.0,571.0,464.0,0.1543772731196096,2010.0,,38.74301256934507,-9.19733505964152,0,28,11.0,12042.0,1094.7272727272727,3,6,6,5
9271,Phd. Brandy Garcia,female,1990-12-24 10:09:00,1.0,0.0,0.0,3.0,7340.0,1119.0,19.0,389.0,389.0,467.0,749.0,694.0,170.0,506.0,579.0,0.1427165734619872,2012.0,,38.74154021555075,-9.17785525225719,0,33,9.0,11823.0,1313.6666666666667,3,6,6,5
4970,Bsc. Shelly Morey,female,1997-11-02 09:12:00,0.0,0.0,0.0,2.0,6565.0,914.0,19.0,393.0,474.0,376.0,746.0,600.0,248.0,477.0,343.0,0.157885229968116,2007.0,926864.0,38.7375474241779,-9.19645528963064,0,26,14.0,10793.0,770.9285714285714,1,6,6,5
26219,James Paulin,male,1997-12-20 04:59:00,0.0,0.0,0.0,3.0,7037.0,1036.0,20.0,387.0,420.0,388.0,677.0,703.0,293.0,331.0,566.0,0.1452711175452823,2011.0,,38.76631141863105,-9.170285367416913,0,26,10.0,11272.0,1127.2,0,6,6,5
10137,Msc. Kyle Tallent,male,1993-10-03 02:10:00,0.0,0.0,0.0,4.0,6603.0,1012.0,17.0,398.0,434.0,393.0,693.0,720.0,305.0,473.0,397.0,0.1487296352669136,2011.0,,38.72806406786397,-9.14929309246359,0,30,10.0,11031.0,1103.1,2,6,6,5
21471,Msc. Keith Hurdle,male,1990-10-17 11:43:00,0.0,0.0,0.0,3.0,6731.0,1475.0,19.0,402.0,385.0,389.0,737.0,593.0,171.0,564.0,593.0,0.1510963938449713,2006.0,,38.75754103816568,-9.175449074435113,0,33,15.0,11447.0,763.1333333333333,2,6,6,5
9583,Msc. Lowell Johnson,male,1995-11-10 07:13:00,0.0,0.0,0.0,3.0,6826.0,1260.0,16.0,385.0,355.0,379.0,731.0,754.0,179.0,512.0,631.0,0.1543247743124418,2011.0,,38.735682954646,-9.198372019368453,0,28,10.0,11381.0,1138.1,2,6,6,5
3880,Msc. Betty Davis,female,1996-09-10 01:49:00,0.0,0.0,0.0,3.0,7488.0,955.0,18.0,448.0,358.0,430.0,592.0,660.0,93.0,409.0,385.0,0.1593158500073213,2013.0,961338.0,38.75579091955121,-9.168465608866782,0,27,8.0,11433.0,1429.125,2,6,6,5
5879,Bsc. Rita Marshall,female,1993-12-04 06:55:00,0.0,0.0,0.0,3.0,7614.0,1035.0,18.0,470.0,444.0,378.0,722.0,740.0,333.0,537.0,524.0,0.144473770284354,2012.0,991800.0,38.76670598135271,-9.09862989001063,0,30,9.0,12273.0,1363.6666666666667,1,6,6,5
12075,Msc. Nell Adams,female,1991-01-21 07:51:00,0.0,0.0,0.0,3.0,7246.0,873.0,18.0,427.0,375.0,370.0,639.0,636.0,328.0,515.0,602.0,0.1454425890348575,2018.0,,38.73909959072097,-9.17190203447366,0,32,3.0,11409.0,3803.0,2,6,6,5
21511,Phd. Bruce Lewis,male,1995-09-25 04:15:00,0.0,0.0,0.0,3.0,6984.0,1145.0,19.0,346.0,424.0,346.0,660.0,665.0,250.0,504.0,294.0,0.1471362256342692,2013.0,,38.73144429307125,-9.146036068989485,0,28,8.0,11324.0,1415.5,3,6,6,5
22350,Bsc. Carolyn Darnell,female,1994-01-21 01:55:00,0.0,0.0,0.0,3.0,6905.0,1155.0,19.0,450.0,468.0,391.0,635.0,776.0,168.0,627.0,711.0,0.145906155779313,2014.0,,38.73864943396911,-9.16989992205888,0,29,7.0,11575.0,1653.571428571429,1,6,6,5
5283,Bsc. Damon Willingham,male,1997-04-03 04:42:00,1.0,0.0,0.0,2.0,6175.0,1210.0,20.0,298.0,350.0,427.0,580.0,654.0,226.0,698.0,490.0,0.1506349156276026,2011.0,942427.0,38.732546005917214,-9.155188028728164,0,26,10.0,10618.0,1061.8,1,6,6,5
12364,Msc. Rebecca Hollan,female,1997-09-26 07:00:00,0.0,0.0,0.0,3.0,7325.0,1060.0,20.0,362.0,389.0,393.0,771.0,643.0,104.0,637.0,578.0,0.1515730078224426,2015.0,,38.74634330722885,-9.177683438498988,0,26,6.0,11684.0,1947.3333333333333,2,6,6,5
28144,Thomas Brown,male,1991-12-08 08:53:00,0.0,0.0,0.0,4.0,6818.0,945.0,21.0,377.0,472.0,371.0,697.0,649.0,146.0,580.0,730.0,0.1440562742420784,2009.0,,38.73845156120405,-9.140438185286474,0,32,12.0,11055.0,921.25,0,6,6,5
10707,Bsc. Douglas Hardcastle,male,1993-01-19 10:17:00,0.0,0.0,0.0,3.0,7410.0,1081.0,21.0,336.0,476.0,381.0,649.0,686.0,322.0,593.0,707.0,0.1454867413763359,2016.0,,38.74933481773964,-9.164554938874948,0,30,5.0,11934.0,2386.8,1,6,6,5
10266,Msc. Alice Zenker,female,1995-08-21 10:18:00,1.0,0.0,0.0,3.0,6620.0,1004.0,18.0,393.0,460.0,420.0,730.0,641.0,206.0,542.0,597.0,0.1453886719538809,2009.0,,38.76649252443696,-9.160408443381758,0,28,12.0,11016.0,918.0,2,6,6,5
25786,Larry Abramson,male,1997-04-21 10:35:00,0.0,0.0,0.0,3.0,6869.0,1113.0,18.0,409.0,502.0,452.0,706.0,685.0,192.0,492.0,443.0,0.1534705681704803,2010.0,,38.733965123101456,-9.143886357242751,0,26,11.0,11420.0,1038.1818181818182,0,6,6,5
7636,Msc. Renee Coffman,female,1996-08-13 02:38:00,0.0,0.0,0.0,3.0,7418.0,1117.0,19.0,450.0,435.0,329.0,679.0,628.0,20.0,309.0,568.0,0.1553883663093571,2015.0,,38.76150967690322,-9.0949597041558,0,27,6.0,11385.0,1897.5,2,6,6,5
28972,Maria Fowler,female,1994-05-04 09:11:00,0.0,0.0,0.0,3.0,7027.0,811.0,20.0,489.0,444.0,418.0,679.0,702.0,154.0,505.0,555.0,0.1575427402057019,2005.0,,38.7522328729549,-9.16353583046998,0,29,16.0,11229.0,701.8125,0,6,6,5
11178,Msc. Chris Gallant,female,1990-02-07 09:18:00,1.0,0.0,0.0,3.0,6877.0,1080.0,19.0,411.0,422.0,439.0,759.0,687.0,209.0,362.0,628.0,0.1467945973596785,2007.0,,38.77075446006735,-9.104675035722904,0,33,14.0,11246.0,803.2857142857143,2,6,6,5
16690,Phd. Loretta Smith,female,1994-11-09 01:45:00,0.0,0.0,0.0,3.0,7637.0,1021.0,19.0,371.0,384.0,450.0,668.0,708.0,146.0,385.0,612.0,0.1501079689882112,2009.0,,38.75036869191023,-9.175252430028026,0,29,12.0,11770.0,980.8333333333334,3,6,6,5
7913,Phd. Ken Wilson,male,1990-01-04 06:47:00,0.0,0.0,0.0,3.0,7185.0,697.0,19.0,414.0,401.0,446.0,628.0,721.0,269.0,550.0,308.0,0.1469386310449517,2013.0,,38.75244519155922,-9.163888277517536,0,33,8.0,11311.0,1413.875,3,6,6,5
27980,Lisa Kyle,female,1994-06-12 07:16:00,1.0,0.0,0.0,3.0,6816.0,894.0,20.0,481.0,385.0,384.0,651.0,792.0,176.0,698.0,522.0,0.1555593319997378,2011.0,,38.758555402932735,-9.16308748762531,0,29,10.0,11277.0,1127.7,0,6,6,5
11905,Msc. Wilbert Mccomb,male,1994-11-19 08:34:00,1.0,0.0,0.0,3.0,7742.0,776.0,17.0,471.0,416.0,434.0,728.0,749.0,240.0,455.0,464.0,0.1523494436962494,2012.0,,38.73830149170558,-9.19886065792038,0,29,9.0,12011.0,1334.5555555555557,2,6,6,5
18056,Bsc. Roy Henrich,male,1994-03-26 01:46:00,0.0,0.0,0.0,3.0,6854.0,1155.0,19.0,376.0,300.0,433.0,657.0,746.0,284.0,337.0,689.0,0.1632814647782107,2011.0,,38.74721899161796,-9.185669985570698,0,29,10.0,11142.0,1114.2,1,6,6,5
4475,Msc. Robert Higdon,male,1993-11-09 04:58:00,0.0,0.0,0.0,3.0,7352.0,1015.0,19.0,416.0,389.0,310.0,719.0,715.0,226.0,462.0,509.0,0.1486354661927774,2012.0,936646.0,38.74514252723906,-9.176818946016814,0,30,9.0,11604.0,1289.3333333333333,2,6,6,5
12324,Phd. Shannon Holland,female,1990-01-24 04:42:00,0.0,0.0,0.0,4.0,6202.0,717.0,19.0,386.0,296.0,452.0,637.0,751.0,232.0,604.0,468.0,0.1485121380562563,2012.0,,38.73495562138808,-9.153984486048536,0,33,9.0,10277.0,1141.888888888889,3,6,6,5
28329,Jennifer Cruz,female,1993-04-24 08:07:00,1.0,0.0,0.0,2.0,5737.0,839.0,19.0,421.0,374.0,405.0,731.0,634.0,270.0,498.0,664.0,0.1489994486371389,2009.0,,38.75477962241312,-9.100254175296554,0,30,12.0,9909.0,825.75,0,6,6,5
311,Msc. Bess Salos,female,1997-06-27 08:34:00,0.0,0.0,0.0,3.0,6728.0,1131.0,17.0,386.0,439.0,396.0,627.0,771.0,322.0,630.0,681.0,0.1529542023675388,2007.0,915841.0,38.75293825602182,-9.159313609908514,0,26,14.0,11430.0,816.4285714285714,2,6,6,5
2679,Bsc. Tessa Wray,female,1997-01-28 07:52:00,0.0,0.0,0.0,3.0,6715.0,818.0,17.0,487.0,347.0,263.0,800.0,736.0,213.0,650.0,361.0,0.15403643529232,2007.0,951552.0,38.74265832490889,-9.165530653766416,0,26,14.0,11029.0,787.7857142857143,1,6,6,5
13001,Phd. Tanya Watson,female,1991-12-01 05:17:00,0.0,0.0,0.0,3.0,7275.0,817.0,20.0,391.0,358.0,437.0,683.0,661.0,349.0,384.0,540.0,0.155855450594365,2011.0,,38.72794211132673,-9.156691339766356,0,32,10.0,11355.0,1135.5,3,6,6,5
7239,Bsc. Denise Holt,female,1995-10-22 11:43:00,0.0,0.0,0.0,3.0,7518.0,994.0,19.0,384.0,369.0,386.0,758.0,630.0,274.0,431.0,713.0,0.1497444822024644,2009.0,,38.73611677525551,-9.15164102979264,0,28,12.0,11744.0,978.6666666666666,1,6,6,5
28944,Shawn Knox,male,1994-08-19 06:11:00,0.0,0.0,0.0,3.0,7915.0,1174.0,20.0,447.0,432.0,373.0,701.0,712.0,133.0,582.0,510.0,0.1510350924439384,2009.0,,38.75546283650777,-9.156843539085065,0,29,12.0,12469.0,1039.0833333333333,0,6,6,5
9997,Bsc. Margaret Painter,female,1990-01-31 02:42:00,0.0,0.0,0.0,3.0,7382.0,1275.0,18.0,432.0,432.0,465.0,673.0,717.0,20.0,547.0,543.0,0.1536131148087326,2015.0,,38.7321261580986,-9.193431873398248,0,33,6.0,11943.0,1990.5,1,6,6,5
9749,Phd. Porter Sloan,male,1994-12-31 09:35:00,0.0,0.0,0.0,3.0,6569.0,943.0,20.0,380.0,412.0,468.0,777.0,689.0,216.0,384.0,459.0,0.1598078465137215,2008.0,,38.75418388484827,-9.098184242505408,0,29,13.0,10838.0,833.6923076923077,3,6,6,5
24532,Charles Coleman,male,1996-08-27 04:36:00,0.0,0.0,0.0,3.0,7071.0,937.0,19.0,457.0,362.0,411.0,654.0,731.0,26.0,696.0,425.0,0.1472104963750999,2009.0,,38.75140577736222,-9.175400606540098,0,27,12.0,11345.0,945.4166666666666,0,6,6,5
16233,Bsc. Jill Batty,female,1992-12-18 04:12:00,0.0,0.0,0.0,3.0,7220.0,1008.0,20.0,437.0,430.0,342.0,734.0,644.0,308.0,475.0,530.0,0.1484654836186372,2008.0,,38.76554303554251,-9.174969505155412,0,31,13.0,11598.0,892.1538461538462,1,6,6,5
13220,Bsc. Leland Christensen,male,1994-10-02 09:59:00,0.0,0.0,0.0,3.0,6739.0,1020.0,20.0,338.0,437.0,393.0,741.0,695.0,129.0,462.0,321.0,0.1513471562283188,2013.0,,38.73501733125302,-9.193087708323702,0,29,8.0,10954.0,1369.25,1,6,6,5
22304,Phd. Donald Stewart,male,1993-05-10 05:25:00,0.0,0.0,0.0,2.0,7539.0,742.0,18.0,382.0,356.0,516.0,701.0,682.0,288.0,490.0,528.0,0.165948491306762,2011.0,,38.7389936766043,-9.19104776830613,0,30,10.0,11696.0,1169.6,3,6,6,5
13183,Phd. Marie Chaisson,female,1995-09-22 06:52:00,0.0,0.0,0.0,4.0,7261.0,1153.0,20.0,422.0,386.0,391.0,717.0,683.0,363.0,601.0,623.0,0.1501908928198018,2014.0,,38.73521311044114,-9.156158847034348,0,28,7.0,11977.0,1711.0,3,6,6,5
16770,Bsc. Marilyn Voss,female,1990-12-01 01:34:00,0.0,0.0,0.0,3.0,6571.0,1185.0,18.0,411.0,453.0,409.0,657.0,675.0,87.0,424.0,474.0,0.1491778982339685,2013.0,,38.745183497039854,-9.170170722243803,0,33,8.0,10872.0,1359.0,1,6,6,5
6061,Msc. Stephanie Wascher,female,1997-03-13 04:46:00,0.0,0.0,0.0,3.0,6377.0,552.0,20.0,397.0,380.0,447.0,695.0,656.0,114.0,620.0,556.0,0.1511850254448087,2012.0,987067.0,38.76472837410003,-9.171635755439596,0,26,9.0,10238.0,1137.5555555555557,2,6,6,5
7747,Bsc. Timothy Guzman,male,1995-11-02 07:56:00,1.0,0.0,0.0,3.0,7432.0,938.0,18.0,506.0,382.0,468.0,865.0,697.0,157.0,598.0,451.0,0.1532061802501875,2012.0,,38.74370581250278,-9.147555644011604,0,28,9.0,12043.0,1338.111111111111,1,6,6,5
10397,Bsc. William Herzog,male,1995-02-19 12:26:00,0.0,0.0,0.0,3.0,6763.0,807.0,21.0,399.0,380.0,401.0,748.0,723.0,352.0,445.0,554.0,0.152963990180497,2013.0,,38.75424176350663,-9.163924134662237,0,28,8.0,11018.0,1377.25,1,6,6,5
13059,Phd. Gwendolyn Sweeney,female,1990-09-17 01:23:00,0.0,0.0,0.0,3.0,6054.0,1139.0,19.0,458.0,282.0,425.0,729.0,628.0,413.0,604.0,478.0,0.1504872475350653,2009.0,,38.738521526781845,-9.17273376866197,0,33,12.0,10732.0,894.3333333333334,3,6,6,5
25307,Sandra Borrego,female,1994-08-13 02:00:00,0.0,0.0,0.0,4.0,7335.0,931.0,18.0,302.0,364.0,315.0,772.0,705.0,206.0,528.0,290.0,0.1473861379008354,2012.0,,38.73022392623995,-9.14814939083893,0,29,9.0,11458.0,1273.111111111111,0,6,6,5
1050,Msc. Antoinette Lewis,female,1991-06-07 08:12:00,0.0,0.0,0.0,3.0,7082.0,1176.0,18.0,502.0,422.0,424.0,622.0,712.0,141.0,382.0,301.0,0.1564231603051181,2009.0,911070.0,38.73559782251246,-9.187336989747193,0,32,12.0,11463.0,955.25,2,6,6,5
8814,Msc. Nicolas Higginson,male,1991-11-15 11:15:00,0.0,0.0,0.0,3.0,7053.0,1107.0,20.0,429.0,385.0,400.0,726.0,707.0,225.0,491.0,543.0,0.1481954825042381,2010.0,,38.74220354294541,-9.179947167002933,0,32,11.0,11523.0,1047.5454545454545,2,6,6,5
13681,Msc. Charles Devita,male,1992-01-09 10:32:00,0.0,0.0,0.0,3.0,6804.0,761.0,17.0,341.0,468.0,383.0,737.0,705.0,214.0,622.0,304.0,0.1563495716785753,2009.0,,38.75354230928105,-9.174592157258502,0,31,12.0,11035.0,919.5833333333334,2,6,6,5
27511,Virgil Thomas,male,1990-05-21 04:30:00,0.0,0.0,0.0,3.0,6780.0,901.0,17.0,409.0,480.0,310.0,781.0,661.0,324.0,589.0,443.0,0.1442109454714913,2011.0,,38.72897861796368,-9.189469130802864,0,33,10.0,11235.0,1123.5,0,6,6,5
15238,Bsc. Henry Gluck,male,1997-10-10 09:13:00,0.0,0.0,0.0,3.0,7255.0,814.0,20.0,359.0,354.0,415.0,704.0,648.0,130.0,551.0,492.0,0.1586535285265675,2009.0,,38.75628726201148,-9.175780835895727,0,26,12.0,11230.0,935.8333333333334,1,6,6,5
8726,Msc. Tanya Green,female,1993-04-24 10:24:00,0.0,0.0,0.0,3.0,6913.0,653.0,19.0,376.0,389.0,402.0,772.0,822.0,116.0,628.0,469.0,0.1487331931322118,2006.0,,38.74295494204959,-9.204427799328494,0,30,15.0,11071.0,738.0666666666667,2,6,6,5
12803,Msc. Shannon Wynn,male,1997-11-25 04:12:00,0.0,0.0,0.0,3.0,6669.0,1248.0,18.0,402.0,441.0,344.0,694.0,706.0,78.0,711.0,416.0,0.1545145570266129,2007.0,,38.76522567995449,-9.09862989001063,0,26,14.0,11293.0,806.6428571428571,2,6,6,5
26318,James Bourgeois,male,1992-01-01 05:26:00,0.0,0.0,0.0,3.0,7691.0,942.0,19.0,419.0,420.0,373.0,644.0,686.0,249.0,495.0,625.0,0.1513008406465385,2013.0,,38.769328931761216,-9.096143584985237,0,31,8.0,11919.0,1489.875,0,6,6,5
8478,Phd. Annie Rincon,female,1992-05-09 04:07:00,0.0,0.0,1.0,3.0,6597.0,1188.0,19.0,427.0,384.0,395.0,749.0,647.0,11.0,559.0,475.0,0.1553677423442094,2006.0,,38.74192246550141,-9.178936112490092,0,31,15.0,10957.0,730.4666666666667,3,6,6,5
8350,Msc. Sandra Wills,female,1996-06-07 01:42:00,0.0,0.0,0.0,3.0,6817.0,667.0,19.0,405.0,412.0,459.0,676.0,801.0,100.0,431.0,493.0,0.1513091959015354,2009.0,,38.76236411508052,-9.165999515643604,0,27,12.0,10768.0,897.3333333333334,2,6,6,5
13638,Bsc. Bobbie Louthan,female,1990-12-22 07:29:00,0.0,0.0,0.0,3.0,7407.0,948.0,20.0,390.0,396.0,397.0,651.0,602.0,151.0,450.0,415.0,0.15311986887945,2014.0,,38.75150967475808,-9.169395474247262,0,33,7.0,11392.0,1627.428571428571,1,6,6,5
7263,Bsc. Judy Alex,female,1990-04-19 06:20:00,1.0,0.0,0.0,3.0,6972.0,864.0,19.0,227.0,380.0,333.0,713.0,711.0,243.0,621.0,533.0,0.1471308511882338,2011.0,,38.76840217427765,-9.159370273958304,0,33,10.0,11064.0,1106.4,1,6,6,5
672,Bsc. Kirby Toler,female,1996-08-31 04:11:00,0.0,0.0,0.0,3.0,7145.0,1287.0,19.0,374.0,390.0,428.0,706.0,730.0,224.0,559.0,656.0,0.1520431231216585,2007.0,919288.0,38.753854459625984,-9.182160778248914,0,27,14.0,11843.0,845.9285714285714,1,6,6,5
20311,Phd. Allen Dumond,male,1994-12-13 01:53:00,0.0,0.0,0.0,3.0,6823.0,512.0,19.0,392.0,436.0,439.0,801.0,755.0,177.0,516.0,560.0,0.1522920054445052,2011.0,,38.73460772102272,-9.157175635325862,0,29,10.0,10851.0,1085.1,3,6,6,5
10677,Bsc. Robert Huddleston,male,1997-03-30 02:11:00,0.0,0.0,0.0,3.0,6528.0,1030.0,20.0,325.0,404.0,382.0,723.0,620.0,63.0,539.0,519.0,0.14951066763162,2012.0,,38.74419056709832,-9.19982296091562,0,26,9.0,10614.0,1179.3333333333333,1,6,6,5
17929,Bsc. Arturo White,male,1992-03-16 11:09:00,0.0,0.0,0.0,4.0,7017.0,940.0,21.0,409.0,430.0,430.0,675.0,598.0,186.0,343.0,418.0,0.1499976358218827,2008.0,,38.76776916738373,-9.098035333934057,0,31,13.0,11028.0,848.3076923076923,1,6,6,5
9927,Phd. Katy Vargas,female,1996-09-14 04:10:00,0.0,0.0,0.0,3.0,7715.0,730.0,20.0,362.0,368.0,416.0,658.0,829.0,131.0,433.0,507.0,0.1469795716432921,2006.0,,38.7305947593881,-9.14299223997703,0,27,15.0,11642.0,776.1333333333333,3,6,6,5
3448,Bsc. Peter Slocum,male,1997-08-21 04:03:00,0.0,0.0,0.0,3.0,7746.0,841.0,20.0,368.0,430.0,505.0,699.0,690.0,183.0,477.0,342.0,0.1512661778966722,2006.0,961304.0,38.75301263336222,-9.164830173220192,0,26,15.0,11939.0,795.9333333333333,1,6,6,5
5267,Msc. Marissa Pollack,female,1993-06-03 01:08:00,0.0,0.0,0.0,3.0,7023.0,1240.0,20.0,405.0,361.0,443.0,779.0,713.0,2.0,389.0,418.0,0.1504437300235717,2009.0,993726.0,38.75493549035255,-9.170431924707442,0,30,12.0,11355.0,946.25,2,6,6,5
2104,Phd. Suzanne Obryon,female,1992-05-06 03:24:00,0.0,0.0,0.0,3.0,6525.0,757.0,19.0,311.0,399.0,388.0,763.0,682.0,100.0,495.0,698.0,0.1510378100026511,2008.0,969013.0,38.75353012596966,-9.181405116912728,0,31,13.0,10420.0,801.5384615384615,3,6,6,5
16558,Msc. Patricia Caruso,female,1990-08-15 05:38:00,0.0,0.0,0.0,3.0,6923.0,772.0,19.0,452.0,475.0,422.0,692.0,687.0,27.0,382.0,580.0,0.1503409255658444,2012.0,,38.73436841821489,-9.19917959760564,0,33,9.0,10832.0,1203.5555555555557,2,6,6,5
12219,Bsc. Ardella Boshears,female,1994-04-24 02:11:00,0.0,0.0,0.0,3.0,6856.0,1233.0,17.0,288.0,292.0,372.0,751.0,636.0,219.0,566.0,395.0,0.1566939820209847,2011.0,,38.76396437421442,-9.09862989001063,0,29,10.0,11213.0,1121.3,1,6,6,5
13809,Phd. Patrica Green,female,1990-09-15 04:56:00,0.0,0.0,0.0,4.0,7341.0,1140.0,20.0,386.0,427.0,322.0,766.0,736.0,238.0,344.0,523.0,0.1444104590473788,2016.0,,38.76128743907987,-9.164271172350226,0,33,5.0,11700.0,2340.0,3,6,6,5
9160,Bsc. Eleanor Crowe,female,1993-02-16 12:31:00,0.0,0.0,0.0,3.0,7982.0,1051.0,18.0,401.0,362.0,385.0,703.0,674.0,311.0,601.0,344.0,0.1510657038276528,2004.0,,38.77246859680554,-9.104147229580748,0,30,17.0,12470.0,733.5294117647059,1,6,6,5
5520,Phd. Theresa Buran,female,1995-07-25 12:26:00,0.0,0.0,0.0,4.0,7495.0,771.0,21.0,462.0,341.0,386.0,674.0,658.0,210.0,390.0,509.0,0.1525371043508606,2006.0,900266.0,38.76649152672919,-9.164763937313989,0,28,15.0,11387.0,759.1333333333333,3,6,6,5
12378,Bsc. Angela Rayburn,female,1997-03-22 09:42:00,0.0,0.0,0.0,3.0,7801.0,787.0,20.0,442.0,396.0,387.0,678.0,706.0,65.0,605.0,581.0,0.1512109934045624,2006.0,,38.73516334923189,-9.19168356023384,0,26,15.0,11867.0,791.1333333333333,1,6,6,5
14975,Phd. Devin Thomas,male,1997-10-02 11:56:00,0.0,0.0,1.0,3.0,7222.0,919.0,19.0,401.0,423.0,437.0,668.0,628.0,204.0,616.0,326.0,0.1398670002329656,2009.0,,38.76102122285405,-9.095200617671404,0,26,12.0,11518.0,959.8333333333334,3,6,6,5
5349,Bsc. Donna Wray,female,1990-12-29 05:45:00,0.0,0.0,0.0,4.0,6440.0,918.0,17.0,374.0,418.0,394.0,666.0,695.0,133.0,514.0,435.0,0.1414212240054112,2010.0,915612.0,38.7559142218818,-9.175940002524648,0,33,11.0,10552.0,959.2727272727273,1,6,6,5
8588,Msc. Margaret Hayes,female,1994-02-18 11:16:00,0.0,0.0,0.0,3.0,6908.0,576.0,19.0,316.0,370.0,435.0,745.0,647.0,279.0,506.0,525.0,0.1503093450584349,2005.0,,38.73453371779497,-9.151563210047987,0,29,16.0,10782.0,673.875,2,6,6,5
15747,Bsc. Joleen Sandidge,female,1992-10-17 03:17:00,0.0,0.0,0.0,3.0,6346.0,1469.0,21.0,376.0,298.0,395.0,736.0,792.0,79.0,565.0,554.0,0.1520914144708237,2009.0,,38.73329598544832,-9.155332223855956,0,31,12.0,11056.0,921.3333333333334,1,6,6,5
25302,Patricia Green,female,1996-07-02 11:34:00,0.0,0.0,0.0,2.0,6815.0,1060.0,21.0,432.0,360.0,352.0,740.0,642.0,43.0,417.0,533.0,0.1526954772610746,2010.0,,38.738107278011086,-9.19162502833933,0,27,11.0,10861.0,987.3636363636364,0,6,6,5
2282,Bsc. Hazel Villarreal,female,1995-04-15 07:56:00,1.0,0.0,0.0,4.0,6638.0,1245.0,18.0,396.0,337.0,448.0,694.0,778.0,259.0,605.0,477.0,0.1467382811545698,2014.0,970554.0,38.75255464623293,-9.172723947099316,0,28,7.0,11400.0,1628.571428571429,1,6,6,5
14023,Msc. Todd Cobb,male,1991-09-22 09:38:00,0.0,0.0,0.0,3.0,7534.0,849.0,18.0,361.0,405.0,394.0,719.0,661.0,336.0,657.0,369.0,0.1494454361478377,2018.0,,38.76347328807663,-9.103810507490673,0,32,3.0,11916.0,3972.0,2,6,6,5
29413,Teresa Bowman,female,1993-12-25 06:28:00,1.0,0.0,0.0,2.0,6055.0,1066.0,20.0,391.0,335.0,382.0,718.0,709.0,280.0,530.0,538.0,0.1587931046364392,2008.0,,38.75234626153598,-9.159688913237527,0,30,13.0,10466.0,805.0769230769231,0,6,6,5
17618,Bsc. Wanda Williams,female,1990-09-25 02:09:00,0.0,0.0,0.0,3.0,7140.0,957.0,18.0,414.0,440.0,360.0,641.0,694.0,409.0,338.0,477.0,0.1493145338870648,2009.0,,38.733386231719074,-9.14795860876268,0,33,12.0,11393.0,949.4166666666666,1,6,6,5
8713,Bsc. Jeffrey Morgan,male,1994-12-22 11:00:00,0.0,0.0,0.0,3.0,6057.0,1518.0,19.0,360.0,431.0,450.0,613.0,625.0,374.0,570.0,602.0,0.1401003449185977,2009.0,,38.73829349490679,-9.1494507200278,0,29,12.0,10998.0,916.5,1,6,6,5
19322,Bsc. Meaghan Peterson,female,1994-07-20 04:11:00,1.0,0.0,0.0,3.0,7244.0,1006.0,18.0,510.0,383.0,441.0,675.0,651.0,255.0,413.0,418.0,0.1598579194477281,2011.0,,38.739053336278936,-9.171343872061213,0,29,10.0,11578.0,1157.8,1,6,6,5
9348,Bsc. Chad Sanders,male,1996-12-29 07:59:00,0.0,0.0,0.0,3.0,6105.0,1195.0,20.0,283.0,437.0,407.0,681.0,700.0,449.0,640.0,546.0,0.1361407144490927,2011.0,,38.74443014051069,-9.186523793069744,0,27,10.0,10897.0,1089.7,1,6,6,5
26870,Glynda Fleck,female,1993-05-19 10:03:00,1.0,0.0,0.0,3.0,6837.0,922.0,19.0,489.0,339.0,491.0,653.0,791.0,208.0,499.0,470.0,0.1541638838635313,2013.0,,38.728262202648125,-9.201971973933311,0,30,8.0,11229.0,1403.625,0,6,6,5
27261,Joseph Quinones,male,1993-08-04 11:16:00,0.0,0.0,0.0,4.0,6875.0,899.0,21.0,323.0,346.0,425.0,680.0,732.0,348.0,553.0,511.0,0.1554184258618596,2014.0,,38.74301248051284,-9.181609925082244,0,30,7.0,11181.0,1597.2857142857142,0,6,6,5
16906,Phd. Brandon Khan,male,1990-11-17 02:14:00,0.0,0.0,0.0,3.0,7488.0,1172.0,17.0,397.0,534.0,366.0,698.0,794.0,147.0,529.0,479.0,0.1517576615096704,2006.0,,38.76426428570693,-9.168569556479184,0,33,15.0,12125.0,808.3333333333334,3,6,6,5
19480,Bsc. Maria Bookout,female,1995-03-02 12:30:00,1.0,0.0,0.0,3.0,6887.0,1424.0,19.0,387.0,359.0,510.0,707.0,669.0,230.0,487.0,585.0,0.1523970332109063,2012.0,,38.74187074652207,-9.14178421895016,0,28,9.0,11660.0,1295.5555555555557,1,6,6,5
27713,Charles Feinstein,male,1996-07-04 01:06:00,0.0,0.0,0.0,4.0,6550.0,988.0,19.0,362.0,348.0,357.0,696.0,687.0,183.0,372.0,451.0,0.1466867608685309,2008.0,,38.764386843706944,-9.100225036784837,0,27,13.0,10543.0,811.0,0,6,6,5
20141,Msc. Denny Johnson,male,1990-07-04 03:57:00,0.0,0.0,0.0,3.0,8055.0,808.0,17.0,423.0,422.0,343.0,665.0,786.0,237.0,500.0,609.0,0.1483659539981234,2009.0,,38.75576951742417,-9.170858979114374,0,33,12.0,12239.0,1019.9166666666666,2,6,6,5
17079,Bsc. David Justice,male,1992-03-12 03:48:00,0.0,0.0,0.0,4.0,6925.0,895.0,19.0,412.0,414.0,469.0,728.0,706.0,286.0,650.0,513.0,0.1459234012931674,2007.0,,38.7610163323334,-9.1660779438688,0,31,14.0,11485.0,820.3571428571429,1,6,6,5
15215,Phd. Minnie Graves,female,1994-08-27 06:28:00,0.0,0.0,0.0,3.0,6900.0,948.0,19.0,353.0,364.0,419.0,725.0,693.0,175.0,549.0,625.0,0.1445022434432406,2008.0,,38.76373726740377,-9.09862989001063,0,29,13.0,11126.0,855.8461538461538,3,6,6,5
5562,Phd. David Begay,male,1995-10-27 05:41:00,0.0,0.0,0.0,3.0,6143.0,1072.0,20.0,433.0,382.0,288.0,644.0,695.0,78.0,464.0,522.0,0.1507643695910785,2006.0,923885.0,38.74621883216903,-9.140242761872893,0,28,15.0,10199.0,679.9333333333333,3,6,6,5
28767,Alice Schaeffer,female,1992-04-03 12:56:00,0.0,0.0,0.0,4.0,7338.0,944.0,18.0,333.0,311.0,405.0,701.0,686.0,240.0,605.0,713.0,0.1486612341764996,2009.0,,38.75627111278517,-9.104406259661216,0,31,12.0,11563.0,963.5833333333334,0,6,6,5
18655,Msc. Margaret Karaffa,female,1996-04-18 06:31:00,0.0,0.0,0.0,3.0,7066.0,1024.0,18.0,467.0,324.0,403.0,591.0,679.0,295.0,550.0,481.0,0.1575552909096673,2013.0,,38.74272417362812,-9.16390273269699,0,27,8.0,11399.0,1424.875,2,6,6,5
23050,Phd. Roland Moore,male,1991-08-29 12:30:00,0.0,0.0,0.0,3.0,7618.0,1276.0,18.0,427.0,390.0,441.0,710.0,764.0,171.0,799.0,553.0,0.1474229096456498,2014.0,,38.77111253799531,-9.096436867153546,0,32,7.0,12596.0,1799.428571428571,3,6,6,5
24223,Thomas Forester,male,1992-10-28 11:36:00,0.0,0.0,0.0,3.0,7070.0,1017.0,19.0,381.0,418.0,464.0,701.0,703.0,168.0,451.0,347.0,0.147862706602031,2007.0,,38.7457838942333,-9.187774725009936,0,31,14.0,11373.0,812.3571428571429,0,6,6,5
10343,Phd. Harrison Facer,male,1991-07-23 10:01:00,0.0,0.0,0.0,3.0,6612.0,1095.0,20.0,370.0,420.0,442.0,710.0,732.0,309.0,592.0,606.0,0.1480792378574672,2012.0,,38.77190500150608,-9.101093256349335,0,32,9.0,11282.0,1253.5555555555557,3,6,6,5
22378,Bsc. Nolan Gallman,male,1991-01-13 04:06:00,0.0,0.0,1.0,3.0,6975.0,1253.0,20.0,366.0,462.0,445.0,699.0,715.0,165.0,565.0,407.0,0.1587378005188321,2012.0,,38.735273503554986,-9.159167062016898,0,32,9.0,11645.0,1293.888888888889,1,6,6,5
2529,Bsc. Marie Baker,female,1995-12-29 06:22:00,0.0,0.0,0.0,3.0,6920.0,1101.0,18.0,440.0,426.0,469.0,670.0,708.0,314.0,509.0,431.0,0.1479376947491588,2009.0,965843.0,38.73629110779441,-9.151906483489034,0,28,12.0,11557.0,963.0833333333334,1,6,6,5
9164,Msc. Linda Lewis,female,1990-04-11 07:31:00,0.0,0.0,0.0,3.0,7808.0,795.0,17.0,473.0,383.0,388.0,791.0,714.0,331.0,559.0,460.0,0.1556089251851889,2008.0,,38.75702516394542,-9.10095774001603,0,33,13.0,12242.0,941.6923076923076,2,6,6,5
25086,Kim Dotson,female,1994-03-27 11:41:00,0.0,0.0,0.0,2.0,6639.0,912.0,17.0,401.0,435.0,452.0,756.0,753.0,106.0,514.0,483.0,0.1484849275375085,2018.0,,38.763182251163705,-9.100611288631214,0,29,3.0,10968.0,3656.0,0,6,6,5
15491,Phd. Pamela Porter,female,1996-07-24 12:00:00,0.0,0.0,0.0,3.0,6900.0,881.0,19.0,403.0,418.0,484.0,720.0,702.0,271.0,449.0,584.0,0.1468168257343338,2012.0,,38.75513471694208,-9.09862989001063,0,27,9.0,11228.0,1247.5555555555557,3,6,6,5
23762,Phd. James Echols,male,1995-03-26 12:14:00,0.0,0.0,0.0,4.0,6628.0,1191.0,19.0,442.0,405.0,364.0,764.0,692.0,367.0,494.0,407.0,0.1550835243095999,2009.0,,38.76930300038087,-9.09213643054718,0,28,12.0,11347.0,945.5833333333334,3,6,6,5
652,Bsc. Mary Ramsey,female,1996-03-05 03:52:00,0.0,0.0,0.0,3.0,6752.0,914.0,18.0,380.0,352.0,432.0,789.0,703.0,159.0,495.0,427.0,0.1504174089686731,2010.0,904995.0,38.73980828683243,-9.185526401774355,0,27,11.0,10976.0,997.818181818182,1,6,6,5
18030,Bsc. Jimmy Ramos,male,1994-02-01 08:12:00,1.0,0.0,0.0,3.0,7200.0,957.0,19.0,342.0,435.0,369.0,730.0,751.0,203.0,367.0,373.0,0.1481664871291371,2009.0,,38.741144918966334,-9.140957429542905,0,29,12.0,11354.0,946.1666666666666,1,6,6,5
16188,Phd. Elaine Bulger,female,1991-11-25 06:23:00,1.0,0.0,0.0,3.0,7315.0,807.0,17.0,368.0,429.0,432.0,754.0,688.0,238.0,346.0,521.0,0.1441201166837869,2014.0,,38.76029188892916,-9.17650631727992,0,32,7.0,11377.0,1625.2857142857142,3,6,6,5
18302,Phd. Larry Mcbride,male,1996-01-18 10:32:00,0.0,0.0,0.0,3.0,6635.0,1032.0,19.0,379.0,484.0,356.0,678.0,750.0,323.0,472.0,265.0,0.1313242815007433,2013.0,,38.73604915942041,-9.14872803961909,0,27,8.0,11109.0,1388.625,3,6,6,5
15796,Bsc. Howard Shor,male,1997-06-09 04:24:00,0.0,0.0,0.0,3.0,7783.0,731.0,19.0,418.0,319.0,513.0,634.0,651.0,281.0,566.0,668.0,0.1496741700771041,2009.0,,38.7288447185399,-9.193164319151863,0,26,12.0,11896.0,991.3333333333334,1,6,6,5
1923,Phd. Pedro Gigliotti,male,1993-02-14 02:56:00,0.0,0.0,0.0,3.0,6872.0,1291.0,19.0,464.0,369.0,394.0,631.0,750.0,142.0,449.0,342.0,0.1526946787420441,2006.0,922474.0,38.75583994141818,-9.091935343322724,0,30,15.0,11362.0,757.4666666666667,3,6,6,5
1623,Bsc. Jimmie Dade,male,1991-12-12 01:20:00,0.0,0.0,0.0,3.0,6985.0,998.0,17.0,443.0,427.0,240.0,632.0,747.0,178.0,272.0,449.0,0.1522765615905637,2009.0,992456.0,38.74212546919575,-9.172708423409984,0,32,12.0,10922.0,910.1666666666666,1,6,6,5
24408,Dean Walker,male,1994-11-05 07:52:00,1.0,0.0,0.0,4.0,7411.0,973.0,19.0,461.0,342.0,366.0,714.0,648.0,217.0,452.0,519.0,0.1432062278359021,2007.0,,38.751519519127946,-9.182164493331156,0,29,14.0,11584.0,827.4285714285714,0,6,6,5
18983,Phd. Joy Davis,female,1994-06-04 12:59:00,0.0,0.0,0.0,4.0,6450.0,958.0,20.0,409.0,407.0,383.0,749.0,749.0,238.0,713.0,499.0,0.1500336801643654,2017.0,,38.751322926051216,-9.17418952432322,0,29,4.0,11056.0,2764.0,3,6,6,5
5044,Bsc. Hugh Voeltner,male,1991-12-06 08:40:00,1.0,0.0,0.0,3.0,7096.0,841.0,19.0,309.0,414.0,408.0,729.0,631.0,61.0,553.0,583.0,0.139834628010575,2008.0,959283.0,38.756358031638136,-9.178486727426623,0,32,13.0,11042.0,849.3846153846154,1,6,6,5
24627,Sandra Whalen,female,1996-07-29 07:02:00,0.0,0.0,0.0,4.0,7000.0,1254.0,19.0,393.0,393.0,477.0,757.0,792.0,249.0,508.0,568.0,0.1475542229949255,2013.0,,38.74820825486492,-9.166039735160949,0,27,8.0,11823.0,1477.875,0,6,6,5
7461,Bsc. Sara Cowart,female,1991-09-03 03:28:00,0.0,0.0,0.0,3.0,7295.0,1110.0,20.0,430.0,474.0,384.0,636.0,613.0,157.0,483.0,646.0,0.1443192859188953,2013.0,,38.76188593972808,-9.099686519805504,0,32,8.0,11582.0,1447.75,1,6,6,5
2096,Msc. Janice Hart,female,1997-09-25 07:52:00,0.0,0.0,0.0,3.0,7378.0,561.0,20.0,378.0,316.0,413.0,673.0,727.0,197.0,636.0,655.0,0.1532226893621968,2008.0,930001.0,38.73539339372279,-9.187541386540923,0,26,13.0,11279.0,867.6153846153846,2,6,6,5
8836,Msc. Randy Mihm,male,1993-08-07 08:51:00,0.0,0.0,0.0,2.0,7620.0,1279.0,19.0,495.0,358.0,419.0,796.0,728.0,115.0,638.0,596.0,0.141574152041984,2009.0,,38.76956829183244,-9.102778734579218,0,30,12.0,12448.0,1037.3333333333333,2,6,6,5
5371,Msc. Carol Byers,female,1990-07-14 04:49:00,1.0,0.0,0.0,3.0,7507.0,1292.0,20.0,361.0,389.0,431.0,690.0,608.0,115.0,475.0,535.0,0.1472610230279371,2007.0,923239.0,38.73274635438893,-9.203670477924872,0,33,14.0,11868.0,847.7142857142857,2,6,6,5
22632,Phd. Ryan Carrel,male,1993-05-21 02:26:00,0.0,0.0,0.0,3.0,7028.0,1070.0,19.0,344.0,496.0,288.0,749.0,729.0,134.0,420.0,586.0,0.1427175930009019,2009.0,,38.73737312374107,-9.156928083932897,0,30,12.0,11258.0,938.1666666666666,3,6,6,5
7855,Msc. Mildred Weis,female,1994-09-01 12:51:00,0.0,0.0,0.0,3.0,6842.0,1178.0,18.0,370.0,464.0,374.0,699.0,708.0,273.0,650.0,256.0,0.1595589823297272,2008.0,,38.73262635405729,-9.18884287247865,0,29,13.0,11558.0,889.0769230769231,2,6,6,5
10633,Bsc. Catherine Strayer,female,1997-08-17 01:32:00,0.0,0.0,0.0,2.0,7347.0,662.0,20.0,362.0,402.0,461.0,752.0,757.0,65.0,494.0,448.0,0.1549857823289506,2008.0,,38.76064225704524,-9.167586204562856,0,26,13.0,11302.0,869.3846153846154,1,6,6,5
22204,Phd. Patrick Rushing,male,1995-12-02 08:08:00,0.0,0.0,0.0,3.0,6647.0,1116.0,19.0,477.0,279.0,334.0,621.0,780.0,296.0,520.0,491.0,0.1441008872935335,2010.0,,38.73282725581036,-9.146598581058798,0,28,11.0,11070.0,1006.3636363636364,3,6,6,5
2194,Phd. Debbie Colon,female,1993-05-23 09:58:00,0.0,0.0,0.0,3.0,7026.0,1009.0,17.0,370.0,314.0,396.0,781.0,738.0,243.0,470.0,568.0,0.1470741597962399,2006.0,987954.0,38.73960882468122,-9.181047697181755,0,30,15.0,11347.0,756.4666666666667,3,6,6,5
1103,Msc. Lois Robinson,female,1994-04-09 05:09:00,0.0,0.0,0.0,3.0,7476.0,892.0,20.0,353.0,438.0,378.0,689.0,716.0,214.0,459.0,504.0,0.1446990489280768,2005.0,928957.0,38.73297051567609,-9.196313984524936,0,29,16.0,11615.0,725.9375,2,6,6,5
809,Bsc. William Hensler,male,1992-02-24 07:12:00,0.0,0.0,0.0,3.0,7931.0,903.0,19.0,392.0,440.0,413.0,617.0,748.0,238.0,476.0,517.0,0.1530546280448831,2013.0,906399.0,38.7591436533163,-9.175123537661817,0,31,8.0,12158.0,1519.75,1,6,6,5
28900,Michael Jackson,male,1994-10-25 07:05:00,0.0,0.0,0.0,3.0,7456.0,1187.0,19.0,359.0,424.0,491.0,652.0,725.0,251.0,452.0,505.0,0.1494421588369215,2014.0,,38.754455933534544,-9.182304599016335,0,29,7.0,11997.0,1713.857142857143,0,6,6,5
4020,Phd. Juanita Bogucki,female,1991-03-29 01:49:00,0.0,0.0,0.0,3.0,6769.0,1191.0,20.0,311.0,367.0,500.0,661.0,800.0,356.0,490.0,634.0,0.1521121697975997,2010.0,953302.0,38.74542185665304,-9.17763032334888,0,32,11.0,11445.0,1040.4545454545455,3,6,6,5
419,Msc. Douglas Hand,male,1990-09-19 03:40:00,0.0,0.0,0.0,3.0,6294.0,764.0,19.0,456.0,366.0,383.0,774.0,669.0,202.0,606.0,678.0,0.1556972526728651,2012.0,995749.0,38.767885616858365,-9.15858489645355,0,33,9.0,10514.0,1168.2222222222222,2,6,6,5
6214,Bsc. Rachel Ruff,female,1996-06-01 09:45:00,0.0,0.0,0.0,2.0,7199.0,1072.0,20.0,376.0,379.0,427.0,724.0,612.0,153.0,470.0,539.0,0.149742518452138,2004.0,914508.0,38.75063039581479,-9.177399344079,0,27,17.0,11412.0,671.2941176470588,1,6,6,5
21683,Bsc. Kathy Henry,female,1990-07-03 08:49:00,0.0,0.0,0.0,3.0,7141.0,1039.0,19.0,409.0,478.0,389.0,680.0,691.0,191.0,567.0,604.0,0.155216862464076,2015.0,,38.74754372374332,-9.201484511768651,0,33,6.0,11585.0,1930.8333333333333,1,6,6,5
18566,Phd. Michael Lilly,male,1994-08-08 08:01:00,0.0,0.0,0.0,3.0,6861.0,933.0,19.0,344.0,359.0,394.0,644.0,649.0,272.0,501.0,511.0,0.1511065598066822,2012.0,,38.73859568389826,-9.16799386063932,0,29,9.0,10957.0,1217.4444444444443,3,6,6,5
12788,Msc. Heather Robertshaw,female,1990-09-15 07:30:00,0.0,0.0,0.0,3.0,7061.0,1183.0,19.0,301.0,401.0,362.0,758.0,638.0,198.0,399.0,541.0,0.1572711736999311,2008.0,,38.74183039146498,-9.144759823560964,0,33,13.0,11301.0,869.3076923076923,2,6,6,5
27523,Maria Savage,female,1997-03-18 04:40:00,0.0,0.0,0.0,3.0,7447.0,966.0,19.0,288.0,410.0,371.0,544.0,747.0,180.0,527.0,330.0,0.1514587233349512,2012.0,,38.7520132722414,-9.179147909770045,0,26,9.0,11480.0,1275.5555555555557,0,6,6,5
6928,Msc. Travis Martinez,male,1995-04-13 06:38:00,0.0,0.0,0.0,3.0,5817.0,882.0,19.0,411.0,458.0,472.0,710.0,660.0,204.0,405.0,454.0,0.1481745001950083,2009.0,,38.74611832553079,-9.198493704928593,0,28,12.0,10019.0,834.9166666666666,2,6,6,5
25542,Beatrice Kim,female,1991-10-13 11:20:00,0.0,0.0,0.0,2.0,7545.0,971.0,20.0,312.0,372.0,357.0,753.0,689.0,208.0,474.0,431.0,0.1624227163512691,2005.0,,38.73160322002197,-9.153186471811033,0,32,16.0,11681.0,730.0625,0,6,6,5
20059,Bsc. Aretha Fisher,female,1995-09-08 01:27:00,0.0,0.0,0.0,3.0,6447.0,1048.0,17.0,394.0,459.0,467.0,689.0,637.0,34.0,733.0,460.0,0.1474839733006982,2015.0,,38.75472239860195,-9.179199842988496,0,28,6.0,10908.0,1818.0,1,6,6,5
8815,Phd. Jennifer Carlson,female,1991-05-31 10:29:00,0.0,0.0,0.0,3.0,6916.0,962.0,18.0,436.0,339.0,467.0,716.0,683.0,50.0,619.0,391.0,0.1597347616543004,2011.0,,38.76281039306399,-9.097055418914032,0,32,10.0,11188.0,1118.8,3,6,6,5
3311,Phd. James Johnson,male,1997-11-12 10:04:00,0.0,0.0,0.0,3.0,6808.0,1074.0,19.0,411.0,419.0,361.0,779.0,728.0,233.0,597.0,606.0,0.1479708964400404,2016.0,967192.0,38.74896442710379,-9.164164589042189,0,26,5.0,11410.0,2282.0,3,6,6,5
2882,Phd. Christian Dandurand,male,1995-11-20 10:39:00,0.0,0.0,0.0,3.0,7437.0,973.0,17.0,357.0,411.0,407.0,661.0,744.0,216.0,571.0,603.0,0.1585264396550781,2008.0,972284.0,38.75765986825273,-9.16873602754414,0,28,13.0,11777.0,905.9230769230768,3,6,6,5
12386,Bsc. Jerrell Carpenter,male,1997-04-08 08:34:00,0.0,0.0,0.0,3.0,6875.0,1112.0,19.0,378.0,435.0,346.0,691.0,703.0,415.0,473.0,496.0,0.1558431774629789,2007.0,,38.741858664705454,-9.172627922436266,0,26,14.0,11428.0,816.2857142857143,1,6,6,5
271,Bsc. Stanley Perkins,male,1995-11-28 04:45:00,0.0,0.0,0.0,3.0,7042.0,947.0,19.0,304.0,370.0,333.0,688.0,697.0,98.0,314.0,568.0,0.1468929678267445,2007.0,981732.0,38.75009925756737,-9.17273861738215,0,28,14.0,10793.0,770.9285714285714,1,6,6,5
2811,Msc. Stuart Ethington,male,1993-03-22 04:17:00,0.0,0.0,0.0,4.0,7195.0,869.0,19.0,408.0,305.0,381.0,671.0,641.0,54.0,402.0,458.0,0.1538289780304654,2010.0,950661.0,38.75652997132136,-9.165668750942505,0,30,11.0,10926.0,993.2727272727273,2,6,6,5
22343,Bsc. Josephine Dyer,female,1994-10-26 01:11:00,0.0,0.0,0.0,3.0,7273.0,857.0,17.0,394.0,322.0,369.0,742.0,722.0,17.0,373.0,533.0,0.1447911631616116,2008.0,,38.74928027429352,-9.179773327031832,0,29,13.0,11069.0,851.4615384615385,1,6,6,5
26145,Lisa Cornell,female,1996-06-07 10:47:00,1.0,0.0,0.0,3.0,7340.0,1336.0,20.0,503.0,372.0,287.0,672.0,626.0,194.0,474.0,376.0,0.1532501430984165,2012.0,,38.7405874928551,-9.155719227807108,0,27,9.0,11804.0,1311.5555555555557,0,6,6,5
29938,Donald Nieves,male,1994-04-15 04:37:00,0.0,0.0,0.0,3.0,7621.0,894.0,19.0,437.0,412.0,404.0,647.0,687.0,328.0,422.0,290.0,0.1512110460987641,2011.0,,38.73753129245939,-9.14420268432314,0,29,10.0,11852.0,1185.2,0,6,6,5
12459,Phd. Becky Draper,female,1990-02-06 10:01:00,0.0,0.0,1.0,3.0,7206.0,1321.0,17.0,381.0,456.0,394.0,744.0,718.0,123.0,521.0,411.0,0.1563186971800289,2014.0,,38.726908376928165,-9.142484289330094,0,33,7.0,11864.0,1694.857142857143,3,6,6,5
29374,Paul Trotter,male,1996-10-02 09:11:00,0.0,0.0,0.0,3.0,7000.0,680.0,19.0,425.0,425.0,454.0,667.0,679.0,274.0,525.0,413.0,0.152971732035663,2004.0,,38.7328826959097,-9.139904619421364,0,27,17.0,11129.0,654.6470588235294,0,6,6,5
693,Msc. Eric Tooze,male,1990-06-19 05:12:00,0.0,0.0,0.0,2.0,7317.0,1001.0,16.0,484.0,338.0,360.0,712.0,707.0,291.0,532.0,556.0,0.1573608005385282,2010.0,960653.0,38.75556900551658,-9.101037327953138,0,33,11.0,11742.0,1067.4545454545455,2,6,6,5
1190,Msc. Lee Evert,female,1994-08-28 04:42:00,0.0,0.0,0.0,3.0,5715.0,965.0,19.0,396.0,390.0,376.0,759.0,681.0,380.0,398.0,405.0,0.1474517172612672,2011.0,924689.0,38.72811202276152,-9.200633254320822,0,29,10.0,10060.0,1006.0,2,6,6,5
22763,Bsc. Gabriela Jernigan,female,1995-05-08 12:41:00,0.0,0.0,0.0,3.0,7394.0,1125.0,19.0,373.0,427.0,345.0,700.0,620.0,85.0,688.0,441.0,0.1537464256770384,2006.0,,38.769317452978505,-9.164055984200845,0,28,15.0,11757.0,783.8,1,6,6,5
14803,Msc. Paul Stubblefield,male,1996-06-02 11:08:00,0.0,0.0,0.0,3.0,6761.0,1088.0,19.0,435.0,309.0,334.0,726.0,662.0,273.0,624.0,610.0,0.1508552405548106,2010.0,,38.74938580544903,-9.165212670397928,0,27,11.0,11212.0,1019.2727272727273,2,6,6,5
27320,Jonathan Ramirez,male,1996-05-29 02:38:00,0.0,0.0,0.0,3.0,7535.0,1013.0,19.0,364.0,344.0,479.0,771.0,772.0,206.0,633.0,534.0,0.1400772900726063,2010.0,,38.76304944335985,-9.171544485130177,0,27,11.0,12117.0,1101.5454545454545,0,6,6,5
23825,Bsc. Kevin Mendoza,male,1995-04-11 05:46:00,0.0,0.0,0.0,2.0,6512.0,856.0,18.0,426.0,376.0,337.0,735.0,657.0,405.0,324.0,676.0,0.1510181050376934,2004.0,,38.742111367444,-9.192120299979395,0,28,17.0,10628.0,625.1764705882352,1,6,6,5
1297,Bsc. Eddie Gill,male,1993-12-23 02:12:00,0.0,0.0,0.0,3.0,6431.0,754.0,18.0,386.0,393.0,357.0,670.0,651.0,276.0,389.0,389.0,0.1486417610800982,2013.0,926016.0,38.745631687219735,-9.17334497528296,0,30,8.0,10307.0,1288.375,1,6,6,5
24202,John Ramirez,male,1993-10-01 10:03:00,1.0,0.0,0.0,3.0,7668.0,804.0,17.0,388.0,517.0,416.0,737.0,784.0,258.0,559.0,435.0,0.1489885603391882,2011.0,,38.74403653263107,-9.192130838544374,0,30,10.0,12131.0,1213.1,0,6,6,5
15229,Bsc. Joyce Eagen,female,1996-01-30 08:40:00,0.0,0.0,0.0,3.0,6855.0,1070.0,20.0,413.0,366.0,374.0,756.0,746.0,166.0,467.0,468.0,0.1504791792356503,2006.0,,38.76199136258908,-9.166588086403488,0,27,15.0,11213.0,747.5333333333333,1,6,6,5
28753,Damon Kocher,male,1993-05-27 12:43:00,1.0,0.0,0.0,2.0,6592.0,567.0,19.0,349.0,455.0,319.0,733.0,753.0,99.0,669.0,644.0,0.1486927214835595,2014.0,,38.73590036753464,-9.187062343627897,0,30,7.0,10536.0,1505.142857142857,0,6,6,5
3501,Bsc. Deena Brown,female,1994-03-26 07:03:00,0.0,0.0,0.0,3.0,8072.0,1306.0,20.0,346.0,415.0,347.0,710.0,736.0,290.0,491.0,670.0,0.1557948091042838,2009.0,905444.0,38.7697178574457,-9.162869890716328,0,29,12.0,12713.0,1059.4166666666667,1,6,6,5
22247,Phd. Patrick Laino,male,1993-06-30 05:32:00,0.0,0.0,0.0,2.0,7147.0,1170.0,20.0,453.0,453.0,458.0,666.0,723.0,259.0,390.0,335.0,0.1469418576315776,2008.0,,38.7452763525746,-9.177748908877131,0,30,13.0,11719.0,901.4615384615385,3,6,6,5
22134,Phd. Michael Donaldson,male,1990-12-30 02:43:00,0.0,0.0,0.0,3.0,7493.0,927.0,19.0,505.0,472.0,392.0,745.0,583.0,295.0,656.0,527.0,0.1482094577284773,2013.0,,38.729282659863,-9.15695041625612,0,33,8.0,12068.0,1508.5,3,6,6,5
21525,Bsc. Charlene Graham,female,1994-02-18 06:16:00,0.0,0.0,0.0,2.0,7496.0,1082.0,18.0,306.0,337.0,411.0,676.0,681.0,196.0,498.0,510.0,0.1493850610482138,2011.0,,38.75970000147918,-9.09862989001063,0,29,10.0,11683.0,1168.3,1,6,6,5
25807,Ruby Webb,female,1990-01-20 12:34:00,1.0,0.0,0.0,3.0,7897.0,760.0,18.0,400.0,421.0,491.0,703.0,777.0,37.0,601.0,406.0,0.1515679749278461,2011.0,,38.74249307972012,-9.176305470586922,0,33,10.0,12087.0,1208.7,0,6,6,5
12326,Msc. Tammie Meadows,female,1990-02-05 04:12:00,0.0,0.0,0.0,3.0,6855.0,973.0,20.0,377.0,305.0,354.0,652.0,659.0,224.0,204.0,550.0,0.1578722910075455,2008.0,,38.7312626964172,-9.19081997496879,0,33,13.0,10603.0,815.6153846153846,2,6,6,5
11447,Bsc. Katrina Giglio,female,1994-07-27 02:28:00,0.0,0.0,0.0,3.0,6866.0,806.0,19.0,332.0,363.0,458.0,804.0,725.0,85.0,641.0,533.0,0.1447334011234669,2012.0,,38.73301305920178,-9.192153658531415,0,29,9.0,11080.0,1231.111111111111,1,6,6,5
5939,Msc. Roberta Lundblad,female,1997-07-02 08:41:00,0.0,0.0,0.0,3.0,7108.0,1050.0,21.0,412.0,363.0,339.0,770.0,703.0,176.0,475.0,555.0,0.1483566652691626,2013.0,943347.0,38.73909686518673,-9.176039109918078,0,26,8.0,11396.0,1424.5,2,6,6,5
13599,Msc. Lupe Woodward,female,1997-03-22 02:10:00,0.0,0.0,0.0,3.0,7147.0,1291.0,20.0,476.0,485.0,461.0,628.0,644.0,280.0,429.0,503.0,0.1618887511558591,2012.0,,38.72777166681952,-9.154834946730189,0,26,9.0,11841.0,1315.6666666666667,2,6,6,5
19395,Msc. Mark Brian,male,1994-10-03 08:13:00,0.0,0.0,0.0,3.0,7799.0,1288.0,21.0,392.0,425.0,381.0,742.0,764.0,194.0,368.0,634.0,0.1530616433608108,2012.0,,38.76974393086248,-9.169824280826235,0,29,9.0,12353.0,1372.5555555555557,2,6,6,5
12375,Bsc. Joanne Hood,female,1996-12-01 05:40:00,0.0,0.0,0.0,3.0,7044.0,1150.0,19.0,396.0,383.0,394.0,731.0,682.0,339.0,785.0,524.0,0.1518865559125236,2010.0,,38.727219159460525,-9.1412697741963,0,27,11.0,11904.0,1082.1818181818182,1,6,6,5
10919,Bsc. Joseph Koverman,male,1992-01-30 01:10:00,0.0,0.0,0.0,3.0,6347.0,955.0,18.0,344.0,367.0,415.0,751.0,683.0,48.0,630.0,513.0,0.1561453369945665,2015.0,,38.7660562343057,-9.16548369871804,0,31,6.0,10540.0,1756.6666666666667,1,6,6,5
27293,Carmen Doss,female,1990-09-20 03:10:00,0.0,0.0,0.0,3.0,7266.0,1310.0,19.0,360.0,409.0,404.0,711.0,573.0,74.0,484.0,417.0,0.148282637747712,2009.0,,38.73558845964599,-9.18739396250751,0,33,12.0,11591.0,965.9166666666666,0,6,6,5
26023,Kevin Waller,male,1997-10-14 10:50:00,0.0,0.0,0.0,3.0,7460.0,909.0,20.0,443.0,466.0,475.0,802.0,747.0,224.0,398.0,766.0,0.1471819986495171,2011.0,,38.752770795850914,-9.174942194733612,0,26,10.0,11924.0,1192.4,0,6,6,5
16565,Msc. Mac Edwards,male,1992-12-22 08:02:00,1.0,0.0,0.0,3.0,6741.0,892.0,17.0,448.0,426.0,425.0,742.0,705.0,515.0,478.0,517.0,0.1537284915725377,2008.0,,38.75837497915132,-9.158569362695316,0,31,13.0,11372.0,874.7692307692307,2,6,6,5
18578,Phd. Julie Peterson,female,1997-03-28 04:00:00,1.0,0.0,0.0,4.0,6882.0,1315.0,18.0,405.0,419.0,363.0,580.0,694.0,230.0,611.0,609.0,0.1527275080172359,2011.0,,38.76490966459666,-9.09862989001063,0,26,10.0,11499.0,1149.9,3,6,6,5
8992,Bsc. William Plemons,male,1994-12-31 10:22:00,0.0,0.0,0.0,3.0,6752.0,1233.0,19.0,372.0,401.0,468.0,774.0,625.0,99.0,569.0,502.0,0.1382171359508213,2009.0,,38.7275139976126,-9.140781898713238,0,29,12.0,11293.0,941.0833333333334,1,6,6,5
7324,Msc. Courtney Miranda,female,1996-11-13 02:13:00,0.0,0.0,0.0,3.0,6322.0,1079.0,18.0,391.0,414.0,339.0,744.0,735.0,197.0,510.0,468.0,0.1627476991771587,2009.0,,38.736703848341605,-9.194154317728426,0,27,12.0,10731.0,894.25,2,6,6,5
1526,Phd. Tracy Johnson,female,1991-06-29 10:02:00,0.0,0.0,0.0,3.0,7388.0,1159.0,19.0,322.0,383.0,498.0,657.0,730.0,130.0,454.0,425.0,0.1505160433757296,2012.0,989820.0,38.77136144028147,-9.101324713213964,0,32,9.0,11721.0,1302.3333333333333,3,6,6,5
27182,Marlo Kirk,female,1994-08-01 02:31:00,1.0,0.0,0.0,3.0,7354.0,916.0,19.0,391.0,350.0,441.0,665.0,662.0,34.0,595.0,373.0,0.1532736019900661,2008.0,,38.73752927076168,-9.146902407209788,0,29,13.0,11408.0,877.5384615384615,0,6,6,5
9915,Msc. Tiffanie Evans,female,1996-05-22 01:56:00,0.0,0.0,0.0,3.0,6864.0,965.0,19.0,377.0,340.0,491.0,627.0,740.0,87.0,457.0,394.0,0.1443186246374159,2009.0,,38.729361479245256,-9.14100939192647,0,27,12.0,10948.0,912.3333333333334,2,6,6,5
26422,Robert Russey,male,1997-10-07 02:47:00,0.0,0.0,0.0,3.0,7290.0,959.0,20.0,426.0,321.0,398.0,791.0,747.0,177.0,360.0,428.0,0.1552905770581311,2012.0,,38.75087813868203,-9.170997475310068,0,26,9.0,11469.0,1274.3333333333333,0,6,6,5
26471,Lee Sullivan,male,1994-04-06 08:30:00,0.0,0.0,0.0,3.0,6458.0,821.0,18.0,358.0,381.0,502.0,680.0,680.0,215.0,393.0,501.0,0.1487495791900783,2006.0,,38.73450562869375,-9.197554077434514,0,29,15.0,10488.0,699.2,0,6,6,5
1650,Bsc. Hershel Hill,male,1997-04-18 12:35:00,0.0,0.0,0.0,4.0,6744.0,1059.0,17.0,370.0,400.0,438.0,783.0,664.0,121.0,688.0,268.0,0.1461277759300516,2009.0,976371.0,38.76102273789693,-9.175416297830845,0,26,12.0,11267.0,938.9166666666666,1,6,6,5
22368,Msc. Patricia Richardson,female,1994-03-20 06:38:00,0.0,0.0,0.0,3.0,7007.0,1090.0,20.0,479.0,293.0,519.0,757.0,663.0,158.0,567.0,542.0,0.1511680660823411,2010.0,,38.75236883309439,-9.166039868224916,0,29,11.0,11533.0,1048.4545454545455,2,6,6,5
8788,Msc. Lorraine Allison,female,1995-04-08 06:42:00,0.0,0.0,0.0,3.0,6390.0,1041.0,18.0,340.0,410.0,405.0,746.0,694.0,97.0,432.0,452.0,0.153878074751666,2003.0,,38.75386433676543,-9.169402992739249,0,28,18.0,10555.0,586.3888888888889,2,6,6,5
3271,Bsc. Christopher Townsend,male,1995-06-03 08:47:00,1.0,0.0,0.0,3.0,6884.0,907.0,19.0,397.0,351.0,433.0,756.0,694.0,99.0,504.0,570.0,0.1511304584638664,2008.0,933331.0,38.73508453279477,-9.14958629669057,0,28,13.0,11025.0,848.0769230769231,1,6,6,5
6477,Msc. Russell Cross,male,1992-04-02 07:10:00,0.0,0.0,0.0,3.0,7148.0,1006.0,17.0,350.0,468.0,310.0,718.0,859.0,301.0,579.0,531.0,0.1512811417506794,2007.0,,38.73907572643414,-9.152174941792987,0,31,14.0,11739.0,838.5,2,6,6,5
29503,Jocelyn Capps,female,1996-01-11 08:28:00,0.0,0.0,0.0,3.0,7379.0,741.0,18.0,400.0,327.0,421.0,659.0,827.0,242.0,536.0,394.0,0.1455618572538759,2005.0,,38.762086572248094,-9.17133258264368,0,27,16.0,11532.0,720.75,0,6,6,5
2535,Msc. Beverly Brent,female,1995-04-11 01:50:00,0.0,0.0,0.0,3.0,7415.0,1142.0,19.0,407.0,429.0,285.0,706.0,730.0,84.0,320.0,369.0,0.1575980179952457,2010.0,910975.0,38.745728600851805,-9.143635927087544,0,28,11.0,11518.0,1047.090909090909,2,6,6,5
22640,Phd. Heather Steele,female,1993-06-30 08:43:00,0.0,0.0,0.0,3.0,7350.0,921.0,19.0,380.0,425.0,373.0,695.0,635.0,293.0,324.0,394.0,0.148518824395262,2007.0,,38.75489348865889,-9.09862989001063,0,30,14.0,11396.0,814.0,3,6,6,5
2633,Phd. Brandon English,male,1994-01-06 05:58:00,0.0,0.0,0.0,4.0,6390.0,1071.0,18.0,511.0,429.0,470.0,714.0,608.0,152.0,623.0,649.0,0.1470006779412955,2008.0,913604.0,38.75110187713358,-9.182329470643513,0,29,13.0,10968.0,843.6923076923077,3,6,6,5
14511,Phd. Adrianna Sudderth,female,1992-10-10 12:06:00,1.0,0.0,0.0,4.0,7125.0,980.0,19.0,377.0,388.0,400.0,658.0,690.0,41.0,425.0,679.0,0.1436506367219449,2009.0,,38.75585349051512,-9.176582499611976,0,31,12.0,11084.0,923.6666666666666,3,6,6,5
15216,Phd. Alfred Louie,male,1994-10-29 10:08:00,0.0,0.0,0.0,3.0,6807.0,1150.0,19.0,362.0,379.0,446.0,711.0,652.0,346.0,632.0,548.0,0.1530041815131577,2003.0,,38.75224472452514,-9.15778675033223,0,29,18.0,11485.0,638.0555555555555,3,6,6,5
15335,Msc. William Greenwood,male,1992-05-15 07:35:00,1.0,0.0,0.0,3.0,7294.0,1249.0,21.0,402.0,354.0,394.0,631.0,683.0,350.0,478.0,381.0,0.161351064061487,2012.0,,38.76734041644063,-9.160396481974786,0,31,9.0,11835.0,1315.0,2,6,6,5
4623,Bsc. Richard Mayfield,male,1994-01-25 11:19:00,0.0,0.0,0.0,4.0,7045.0,1073.0,19.0,388.0,414.0,452.0,664.0,721.0,356.0,406.0,495.0,0.1570863645242563,2010.0,966979.0,38.74320714296773,-9.202213218049422,0,29,11.0,11519.0,1047.1818181818182,1,6,6,5
18999,Msc. Joseph Hearns,male,1996-12-17 05:34:00,0.0,0.0,0.0,3.0,7496.0,969.0,18.0,311.0,378.0,367.0,738.0,692.0,197.0,453.0,597.0,0.1434410226394031,2011.0,,38.75367240639597,-9.167413747411558,0,27,10.0,11601.0,1160.1,2,6,6,5
29668,Harold Thompson,male,1996-03-25 08:05:00,1.0,0.0,0.0,3.0,7541.0,1116.0,18.0,443.0,326.0,455.0,677.0,689.0,267.0,440.0,353.0,0.1511451875121945,2011.0,,38.76767031943733,-9.099399344670513,0,27,10.0,11954.0,1195.4,0,6,6,5
24363,Drew Pollina,male,1992-09-23 02:05:00,0.0,0.0,0.0,2.0,7280.0,1099.0,20.0,460.0,475.0,393.0,717.0,611.0,176.0,476.0,455.0,0.1512844406110681,2008.0,,38.74563659011925,-9.158951015725828,0,31,13.0,11687.0,899.0,0,6,6,5
1552,Bsc. Maria Brandon,female,1993-10-29 12:28:00,1.0,0.0,0.0,3.0,5986.0,780.0,19.0,314.0,397.0,473.0,708.0,699.0,257.0,300.0,368.0,0.1516906120279932,2008.0,910695.0,38.73440946788208,-9.15511429403721,0,30,13.0,9914.0,762.6153846153846,1,6,6,5
8401,Phd. Roger Wallace,male,1996-02-25 11:23:00,0.0,0.0,0.0,3.0,7034.0,1117.0,19.0,476.0,402.0,406.0,745.0,762.0,287.0,515.0,390.0,0.1599645836829282,2009.0,,38.76743506041157,-9.09725390299004,0,27,12.0,11744.0,978.6666666666666,3,6,6,5
24557,Helen Sultzer,female,1995-09-14 06:01:00,1.0,0.0,0.0,3.0,6796.0,584.0,16.0,422.0,553.0,382.0,719.0,634.0,260.0,672.0,506.0,0.1445426660296028,2001.0,,38.734125484176346,-9.15486962066814,0,28,20.0,11022.0,551.1,0,6,6,5
13103,Msc. Ellen Thomas,female,1995-09-18 02:32:00,0.0,0.0,0.0,3.0,6425.0,1161.0,18.0,379.0,405.0,470.0,761.0,683.0,18.0,399.0,667.0,0.1545111424677341,2007.0,,38.74764942639983,-9.189425852998346,0,28,14.0,10701.0,764.3571428571429,2,6,6,5
13494,Msc. James Morales,male,1996-09-04 08:32:00,0.0,0.0,0.0,3.0,7525.0,907.0,20.0,388.0,364.0,356.0,733.0,621.0,279.0,449.0,590.0,0.1510619691583157,2010.0,,38.758506297303626,-9.175886130486932,0,27,11.0,11622.0,1056.5454545454545,2,6,6,5
6275,Msc. Fredrick Rogers,male,1993-12-27 09:41:00,0.0,0.0,0.0,4.0,6822.0,1031.0,19.0,343.0,385.0,349.0,659.0,716.0,449.0,588.0,641.0,0.1473053477097185,2005.0,992773.0,38.76165876160274,-9.095893168162924,0,30,16.0,11342.0,708.875,2,6,6,5
26526,Leonard Herrera,male,1993-06-06 08:15:00,1.0,0.0,0.0,3.0,6570.0,1015.0,18.0,453.0,342.0,352.0,666.0,771.0,96.0,380.0,690.0,0.1473170204911354,2012.0,,38.760351384218986,-9.175862240055247,0,30,9.0,10645.0,1182.7777777777778,0,6,6,5
3076,Phd. Sandra Terry,female,1990-04-28 04:17:00,0.0,0.0,0.0,2.0,7453.0,1150.0,22.0,350.0,450.0,429.0,648.0,661.0,187.0,561.0,626.0,0.1542374174605895,2008.0,912379.0,38.75712420176188,-9.165866836764184,0,33,13.0,11889.0,914.5384615384615,3,6,6,5
8132,Phd. Brandy Hall,female,1996-05-09 07:21:00,0.0,0.0,0.0,3.0,6505.0,1111.0,18.0,349.0,311.0,324.0,663.0,717.0,197.0,626.0,643.0,0.1472323111347435,2011.0,,38.729775040111214,-9.142005018974498,0,27,10.0,10803.0,1080.3,3,6,6,5
16490,Bsc. Paul Sisson,male,1997-04-12 12:47:00,0.0,0.0,0.0,2.0,7056.0,915.0,21.0,431.0,345.0,446.0,708.0,789.0,261.0,513.0,374.0,0.1442201629022707,2018.0,,38.77102899071307,-9.09993139539301,0,26,3.0,11464.0,3821.3333333333335,1,6,6,5
23903,Phd. Jamie Rios,female,1996-07-07 03:22:00,0.0,0.0,0.0,3.0,7520.0,1394.0,20.0,417.0,397.0,504.0,690.0,667.0,211.0,525.0,386.0,0.1523544082851028,2007.0,,38.75220373171431,-9.159590398708374,0,27,14.0,12325.0,880.3571428571429,3,6,6,5
11418,Bsc. Charlie Rountree,male,1992-11-24 01:19:00,1.0,0.0,0.0,3.0,7218.0,1175.0,18.0,306.0,403.0,469.0,690.0,720.0,320.0,395.0,484.0,0.1480199482035245,2012.0,,38.735759018739095,-9.15798243099055,0,31,9.0,11696.0,1299.5555555555557,1,6,6,5
17435,Phd. Frances Dimiceli,female,1991-09-13 05:01:00,0.0,0.0,0.0,2.0,7554.0,869.0,20.0,403.0,390.0,330.0,731.0,631.0,291.0,532.0,462.0,0.1552232054618446,2014.0,,38.7351218770839,-9.140452200503193,0,32,7.0,11731.0,1675.857142857143,3,6,6,5
29174,Ada Pollack,female,1993-06-03 01:19:00,0.0,0.0,0.0,3.0,7106.0,1031.0,18.0,461.0,446.0,386.0,577.0,640.0,225.0,687.0,422.0,0.146326086075106,2013.0,,38.7490276372716,-9.16495297759616,0,30,8.0,11559.0,1444.875,0,6,6,5
20627,Phd. Brian Lau,male,1990-01-26 12:31:00,0.0,0.0,0.0,3.0,6372.0,957.0,17.0,446.0,375.0,445.0,652.0,707.0,248.0,503.0,372.0,0.1516094016066106,2004.0,,38.72823968386249,-9.141033016199229,0,33,17.0,10705.0,629.7058823529412,3,6,6,5
15225,Bsc. Ruth Pals,female,1996-06-22 02:57:00,0.0,0.0,0.0,3.0,7138.0,944.0,19.0,412.0,510.0,467.0,700.0,685.0,158.0,500.0,502.0,0.1496022217055249,2014.0,,38.73085659062354,-9.143713363847947,0,27,7.0,11514.0,1644.857142857143,1,6,6,5
28855,Debora Murphy,female,1993-11-07 05:49:00,1.0,0.0,0.0,3.0,6823.0,1106.0,19.0,407.0,413.0,531.0,700.0,742.0,281.0,352.0,399.0,0.1489220149913516,2011.0,,38.7446726828589,-9.150346942187168,0,30,10.0,11355.0,1135.5,0,6,6,5
4570,Phd. Frances Chaves,female,1997-04-17 05:17:00,0.0,0.0,0.0,3.0,5913.0,967.0,19.0,346.0,334.0,385.0,698.0,649.0,113.0,581.0,745.0,0.1491175523861208,2011.0,974629.0,38.73826471172865,-9.155284414121544,0,26,10.0,9986.0,998.6,3,6,6,5
22531,Msc. Bonnie Walker,female,1997-04-27 07:32:00,0.0,0.0,0.0,3.0,6836.0,1161.0,18.0,452.0,365.0,431.0,647.0,659.0,151.0,662.0,301.0,0.1482365654093898,2012.0,,38.75223208646716,-9.162246963850016,0,26,9.0,11364.0,1262.6666666666667,2,6,6,5
1948,Msc. Anthony Baker,male,1991-09-01 11:59:00,0.0,0.0,0.0,3.0,6746.0,1028.0,19.0,460.0,393.0,448.0,632.0,775.0,242.0,576.0,362.0,0.1469410419277779,2006.0,949896.0,38.766738908787765,-9.164390624522053,0,32,15.0,11300.0,753.3333333333334,2,6,6,5
2975,Bsc. Rachel Brown,female,1992-05-11 01:19:00,0.0,0.0,0.0,4.0,6827.0,947.0,21.0,430.0,342.0,399.0,675.0,678.0,116.0,390.0,569.0,0.151746208396004,2010.0,993618.0,38.75593084162549,-9.16918296559848,0,31,11.0,10804.0,982.181818181818,1,6,6,5
23243,Msc. Thomas Manigault,male,1995-06-30 10:16:00,0.0,0.0,0.0,3.0,6961.0,1096.0,18.0,425.0,389.0,417.0,753.0,647.0,132.0,532.0,710.0,0.153641819793976,2006.0,,38.76332022533114,-9.096758054456837,0,28,15.0,11352.0,756.8,2,6,6,5
25887,Celeste Marquez,female,1993-02-05 01:00:00,0.0,0.0,0.0,4.0,7955.0,817.0,20.0,447.0,412.0,391.0,637.0,795.0,152.0,532.0,603.0,0.14930531085771,2010.0,,38.75555785610144,-9.09862989001063,0,30,11.0,12138.0,1103.4545454545455,0,6,6,5
13841,Msc. Kevin Clark,male,1991-08-20 12:02:00,0.0,0.0,0.0,3.0,7142.0,924.0,18.0,467.0,400.0,466.0,669.0,777.0,217.0,411.0,453.0,0.1516661186317944,2010.0,,38.74330881389016,-9.198074679631157,0,32,11.0,11473.0,1043.0,2,6,6,5
28497,Jennifer Paugh,female,1996-03-18 09:34:00,1.0,0.0,0.0,3.0,6998.0,358.0,18.0,412.0,379.0,363.0,692.0,787.0,152.0,379.0,603.0,0.1448683069646573,2007.0,,38.74232209188236,-9.177241644307497,0,27,14.0,10520.0,751.4285714285714,0,6,6,5
412,Bsc. Kathleen Kilgore,female,1992-07-06 09:03:00,1.0,0.0,0.0,3.0,7218.0,760.0,17.0,417.0,442.0,435.0,695.0,748.0,214.0,448.0,496.0,0.1518173095934358,2013.0,979701.0,38.7523038214099,-9.168248454870994,0,31,8.0,11377.0,1422.125,1,6,6,5
6049,Phd. Gloria Herms,female,1993-01-03 05:07:00,0.0,0.0,0.0,3.0,6342.0,1211.0,20.0,409.0,444.0,470.0,715.0,702.0,29.0,615.0,534.0,0.1539132564374093,2012.0,901011.0,38.7557610051597,-9.09862989001063,0,30,9.0,10937.0,1215.2222222222222,3,6,6,5
9868,Bsc. Kenneth Schmidt,male,1993-01-05 04:27:00,0.0,0.0,0.0,4.0,6548.0,878.0,19.0,475.0,329.0,376.0,678.0,730.0,128.0,605.0,668.0,0.1555560271609205,2007.0,,38.73762574491474,-9.159512386065224,0,30,14.0,10747.0,767.6428571428571,1,6,6,5
8114,Phd. Timothy Podmore,male,1997-10-26 11:25:00,0.0,0.0,0.0,3.0,7172.0,1419.0,20.0,370.0,444.0,312.0,822.0,793.0,199.0,561.0,460.0,0.1435914758968306,2007.0,,38.745686610008605,-9.159023287923056,0,26,14.0,12092.0,863.7142857142857,3,6,6,5
1214,Msc. David Barrett,male,1994-10-26 09:41:00,0.0,0.0,0.0,4.0,7026.0,1038.0,19.0,442.0,369.0,376.0,679.0,626.0,167.0,424.0,397.0,0.1526373372472119,2011.0,911104.0,38.751696998616765,-9.165868276381763,0,29,10.0,11147.0,1114.7,2,6,6,5
9256,Msc. Andrew Holloway,male,1997-10-13 04:32:00,0.0,0.0,0.0,3.0,6431.0,594.0,20.0,422.0,347.0,437.0,732.0,641.0,201.0,519.0,415.0,0.1424269441804684,2012.0,,38.76377990956109,-9.092210429980543,0,26,9.0,10324.0,1147.111111111111,2,6,6,5
6364,Phd. Constance Silverthorn,female,1995-12-26 06:47:00,0.0,0.0,0.0,4.0,6666.0,827.0,18.0,412.0,449.0,374.0,709.0,632.0,323.0,605.0,446.0,0.1400509489651367,2005.0,,38.75629775768338,-9.17122477681164,0,28,16.0,10997.0,687.3125,3,6,6,5
15971,Msc. Nancy Quiroz,female,1995-03-24 11:51:00,0.0,0.0,0.0,3.0,7013.0,1124.0,19.0,380.0,414.0,394.0,540.0,831.0,49.0,508.0,261.0,0.154556066689506,2008.0,,38.76630103300682,-9.091960813323258,0,28,13.0,11253.0,865.6153846153846,2,6,6,5
15824,Msc. Minnie Carroll,female,1992-09-10 03:16:00,1.0,0.0,0.0,2.0,6661.0,890.0,18.0,396.0,468.0,379.0,699.0,706.0,44.0,487.0,483.0,0.1495635997720145,2012.0,,38.74323570017971,-9.19158519990919,0,31,9.0,10730.0,1192.2222222222222,2,6,6,5
29191,Jon Abernathy,male,1996-08-08 05:39:00,0.0,0.0,0.0,3.0,7404.0,612.0,19.0,387.0,415.0,379.0,584.0,709.0,27.0,483.0,532.0,0.1520477950437782,2017.0,,38.75481889460999,-9.165186819353572,0,27,4.0,11000.0,2750.0,0,6,6,5
2924,Phd. Terri Evans,female,1991-12-11 02:10:00,0.0,0.0,0.0,3.0,6937.0,1068.0,19.0,330.0,375.0,388.0,654.0,686.0,286.0,527.0,586.0,0.1505695690918681,2019.0,940664.0,38.746332846332,-9.174193085559208,0,32,2.0,11251.0,5625.5,3,6,6,5
19003,Msc. Andrew White,male,1992-01-21 02:41:00,0.0,0.0,0.0,3.0,6011.0,1245.0,20.0,436.0,310.0,366.0,782.0,691.0,191.0,591.0,561.0,0.1518165409141422,2013.0,,38.741335350061455,-9.142586363651494,0,31,8.0,10623.0,1327.875,2,6,6,5
21584,Msc. Arnold Jackson,male,1995-12-06 01:08:00,1.0,0.0,0.0,3.0,7463.0,745.0,19.0,353.0,389.0,453.0,621.0,737.0,344.0,537.0,601.0,0.1492255850936636,2012.0,,38.729353529818425,-9.14076281655687,0,28,9.0,11642.0,1293.5555555555557,2,6,6,5
18856,Msc. Charles Culotta,male,1997-12-08 01:45:00,1.0,0.0,0.0,3.0,5587.0,1249.0,19.0,354.0,438.0,385.0,712.0,740.0,310.0,470.0,597.0,0.1489426044806577,2008.0,,38.76035470068442,-9.173192688960532,0,26,13.0,10245.0,788.0769230769231,2,6,6,5
20257,Bsc. Emily Aleman,female,1997-11-04 03:21:00,0.0,0.0,0.0,3.0,7397.0,897.0,20.0,430.0,375.0,509.0,732.0,739.0,247.0,370.0,588.0,0.1494986837841199,2011.0,,38.75699867204434,-9.175153405001046,0,26,10.0,11696.0,1169.6,1,6,6,5
23214,Bsc. Maryjane Senske,female,1995-05-01 08:24:00,0.0,0.0,0.0,3.0,6398.0,899.0,18.0,350.0,493.0,316.0,709.0,717.0,183.0,505.0,588.0,0.1559630877982273,2008.0,,38.73693117024517,-9.1986860749539,0,28,13.0,10570.0,813.0769230769231,1,6,6,5
7355,Phd. Amy Fairey,female,1996-07-01 11:38:00,0.0,0.0,0.0,4.0,6610.0,1038.0,19.0,308.0,432.0,373.0,685.0,753.0,132.0,265.0,426.0,0.1522461695880339,2012.0,,38.72652746942118,-9.153516885410887,0,27,9.0,10596.0,1177.3333333333333,3,6,6,5
18445,Msc. Casey Garrett,female,1991-07-21 09:31:00,0.0,0.0,0.0,4.0,8473.0,1275.0,20.0,327.0,481.0,258.0,725.0,663.0,263.0,573.0,613.0,0.1485491659250056,2010.0,,38.75047000212285,-9.179737433580572,0,32,11.0,13038.0,1185.2727272727273,2,6,6,5
29918,Margaret Tyree,female,1996-10-29 09:39:00,0.0,0.0,0.0,4.0,8106.0,846.0,19.0,337.0,384.0,400.0,749.0,762.0,179.0,576.0,428.0,0.1494278603903822,2006.0,,38.75732662407359,-9.09862989001063,0,27,15.0,12339.0,822.6,0,6,6,5
29404,James Hor,male,1993-03-23 08:35:00,0.0,0.0,0.0,3.0,6840.0,1099.0,20.0,423.0,466.0,344.0,695.0,699.0,310.0,476.0,506.0,0.1397701736572862,2010.0,,38.73695644648773,-9.197030446217898,0,30,11.0,11352.0,1032.0,0,6,6,5
25948,Doug Frierson,male,1993-03-13 03:00:00,0.0,0.0,0.0,3.0,8113.0,1048.0,19.0,514.0,339.0,458.0,694.0,704.0,195.0,383.0,456.0,0.1515594746867595,2012.0,,38.7507615093372,-9.164234674605227,0,30,9.0,12448.0,1383.111111111111,0,6,6,5
15126,Msc. Mary Hobson,female,1997-03-18 09:50:00,0.0,0.0,0.0,2.0,6347.0,1307.0,19.0,309.0,348.0,448.0,627.0,685.0,247.0,555.0,702.0,0.1395798068094125,2013.0,,38.74457271574356,-9.196278314187118,0,26,8.0,10873.0,1359.125,2,6,6,5
20931,Phd. William Perez,male,1992-04-18 10:05:00,0.0,0.0,0.0,3.0,5926.0,791.0,19.0,368.0,255.0,402.0,778.0,634.0,267.0,517.0,548.0,0.1470643270855568,2014.0,,38.76985610368212,-9.095509197517552,0,31,7.0,9938.0,1419.7142857142858,3,6,6,5
15012,Bsc. Edward Crosswell,male,1990-11-02 09:21:00,0.0,0.0,0.0,2.0,6634.0,917.0,19.0,470.0,444.0,429.0,759.0,648.0,83.0,580.0,530.0,0.1534876138359427,2008.0,,38.73031997327907,-9.141762557155994,0,33,13.0,10964.0,843.3846153846154,1,6,6,5
17317,Bsc. Mildred Fletcher,female,1994-05-10 05:37:00,0.0,0.0,0.0,3.0,6070.0,1356.0,19.0,341.0,483.0,440.0,698.0,695.0,197.0,518.0,429.0,0.1532366975830539,2013.0,,38.757001180444576,-9.171175582644796,0,29,8.0,10798.0,1349.75,1,6,6,5
15696,Bsc. Steven Owens,male,1994-08-16 06:37:00,1.0,0.0,0.0,2.0,7488.0,961.0,19.0,412.0,463.0,438.0,710.0,658.0,174.0,521.0,426.0,0.145447748519004,2012.0,,38.77059242547882,-9.10066237716082,0,29,9.0,11825.0,1313.888888888889,1,6,6,5
898,Bsc. Salvador Walters,male,1990-09-08 05:34:00,0.0,0.0,0.0,2.0,7157.0,997.0,18.0,414.0,366.0,545.0,774.0,724.0,280.0,366.0,456.0,0.1488792153222993,2008.0,934862.0,38.736983425775136,-9.19558151449192,0,33,13.0,11623.0,894.0769230769231,1,6,6,5
10895,Msc. Monica Goodman,female,1993-07-17 06:18:00,0.0,0.0,0.0,3.0,7045.0,875.0,19.0,462.0,387.0,399.0,692.0,645.0,422.0,634.0,626.0,0.1476146640296654,2012.0,,38.75437857831135,-9.101431446989835,0,30,9.0,11561.0,1284.5555555555557,2,6,6,5
1291,Phd. Julian Blaine,male,1994-11-15 09:13:00,0.0,0.0,0.0,3.0,7025.0,959.0,18.0,367.0,348.0,336.0,724.0,710.0,193.0,575.0,664.0,0.1434711522382069,2011.0,901361.0,38.730353856156185,-9.19348581270743,0,29,10.0,11237.0,1123.7,3,6,6,5
5329,Bsc. Beverly Zavala,female,1994-10-25 02:47:00,0.0,0.0,0.0,3.0,7106.0,584.0,21.0,358.0,404.0,397.0,702.0,713.0,144.0,488.0,481.0,0.1547542111158096,2009.0,925634.0,38.729794612766895,-9.153033083800144,0,29,12.0,10896.0,908.0,1,6,6,5
28553,Yvonne Hughes,female,1996-10-10 12:15:00,1.0,0.0,0.0,3.0,6762.0,1015.0,19.0,505.0,434.0,468.0,653.0,734.0,306.0,380.0,501.0,0.1442028410502162,2012.0,,38.76728260373641,-9.10286642295222,0,27,9.0,11257.0,1250.7777777777778,0,6,6,5
3897,Bsc. Robert Bohorquez,male,1990-10-10 09:31:00,0.0,0.0,0.0,2.0,7219.0,1148.0,20.0,442.0,425.0,384.0,713.0,731.0,48.0,449.0,551.0,0.1549068547871446,2010.0,984961.0,38.76515544129987,-9.103395045373608,0,33,11.0,11559.0,1050.8181818181818,1,6,6,5
12611,Msc. Brian Pale,male,1991-03-27 10:43:00,0.0,0.0,0.0,3.0,6965.0,1189.0,19.0,369.0,387.0,393.0,770.0,662.0,24.0,442.0,457.0,0.1541102859213933,2015.0,,38.77170276681472,-9.09862989001063,0,32,6.0,11201.0,1866.8333333333333,2,6,6,5
15756,Msc. Caroline Marshall,female,1996-12-15 05:36:00,0.0,0.0,0.0,3.0,5152.0,967.0,20.0,379.0,373.0,455.0,708.0,751.0,204.0,493.0,496.0,0.1597557184337296,2010.0,,38.75987086219678,-9.174319260508572,0,27,11.0,9482.0,862.0,2,6,6,5
24212,Cynthia Lancaster,female,1994-03-16 06:00:00,0.0,0.0,0.0,4.0,5782.0,1288.0,20.0,406.0,315.0,323.0,773.0,797.0,158.0,557.0,467.0,0.159101200801033,2009.0,,38.734349858828544,-9.150985919499144,0,29,12.0,10399.0,866.5833333333334,0,6,6,5
21667,Bsc. Agueda Highland,female,1990-05-15 01:23:00,0.0,0.0,0.0,3.0,7407.0,935.0,20.0,435.0,399.0,414.0,691.0,688.0,195.0,534.0,572.0,0.1537927045707194,2005.0,,38.75423916222163,-9.09783713965089,0,33,16.0,11698.0,731.125,1,6,6,5
3504,Phd. Kristin Contreras,female,1993-09-27 09:55:00,0.0,0.0,0.0,3.0,6024.0,1118.0,20.0,439.0,361.0,450.0,726.0,714.0,191.0,593.0,510.0,0.147780471886925,2012.0,964785.0,38.73692142282589,-9.153361286795654,0,30,9.0,10616.0,1179.5555555555557,3,6,6,5
19182,Msc. Adan Dubois,male,1996-11-13 09:38:00,1.0,0.0,0.0,3.0,7518.0,1025.0,18.0,444.0,367.0,425.0,659.0,741.0,173.0,400.0,498.0,0.1311463956612396,2005.0,,38.73874371343119,-9.177061580739531,0,27,16.0,11752.0,734.5,2,6,6,5
4764,Bsc. Helen Ramirez,female,1995-12-01 02:27:00,0.0,0.0,0.0,4.0,7410.0,1042.0,18.0,379.0,428.0,354.0,591.0,716.0,206.0,486.0,333.0,0.1482451621448851,2013.0,992623.0,38.74214610002815,-9.200105419188572,0,28,8.0,11612.0,1451.5,1,6,6,5
19489,Bsc. Ryan Spotwood,male,1990-09-22 12:35:00,0.0,0.0,0.0,3.0,6708.0,805.0,17.0,308.0,369.0,357.0,784.0,718.0,154.0,616.0,446.0,0.1612428153063128,2012.0,,38.76819866359528,-9.165519480570008,0,33,9.0,10819.0,1202.111111111111,1,6,6,5
19835,Phd. Paul Seals,male,1994-02-07 10:42:00,1.0,0.0,0.0,2.0,6901.0,691.0,20.0,409.0,343.0,377.0,671.0,641.0,271.0,323.0,554.0,0.1401577336805411,2008.0,,38.766841598060736,-9.172796612000164,0,29,13.0,10627.0,817.4615384615385,3,6,6,5
18570,Phd. Betty Saunders,female,1993-11-19 04:53:00,0.0,0.0,0.0,2.0,6898.0,1086.0,17.0,383.0,394.0,492.0,670.0,773.0,212.0,598.0,526.0,0.1459237937890902,2011.0,,38.74969153228574,-9.167690798968744,0,30,10.0,11506.0,1150.6,3,6,6,5
3743,Bsc. Melba Dyer,female,1992-09-11 10:24:00,0.0,0.0,0.0,3.0,7673.0,855.0,21.0,383.0,384.0,376.0,771.0,708.0,98.0,481.0,475.0,0.152305672256786,2014.0,934576.0,38.74956282034682,-9.17999251273356,0,31,7.0,11729.0,1675.571428571429,1,6,6,5
10247,Msc. James Macomber,male,1994-01-11 07:26:00,0.0,0.0,0.0,3.0,6828.0,982.0,19.0,437.0,425.0,357.0,716.0,713.0,136.0,477.0,631.0,0.1580480705822131,2011.0,,38.74197209775146,-9.143752933899355,0,29,10.0,11071.0,1107.1,2,6,6,5
8542,Phd. Robert Davis,male,1996-11-30 09:18:00,0.0,0.0,0.0,3.0,7400.0,701.0,19.0,340.0,417.0,410.0,737.0,595.0,240.0,556.0,406.0,0.142100592716362,2013.0,,38.75288714115735,-9.170361301176388,0,27,8.0,11396.0,1424.5,3,6,6,5
2952,Bsc. Elizabeth Leko,female,1991-02-18 12:00:00,0.0,0.0,0.0,2.0,6517.0,1201.0,20.0,438.0,391.0,342.0,713.0,674.0,243.0,459.0,386.0,0.1440600155203841,2013.0,994140.0,38.7410302211264,-9.147184999569552,0,32,8.0,10978.0,1372.25,1,6,6,5
8663,Bsc. Ray Stough,male,1994-09-08 11:35:00,1.0,0.0,0.0,3.0,6597.0,1098.0,20.0,472.0,467.0,326.0,720.0,706.0,306.0,502.0,553.0,0.1558166661735321,2009.0,,38.74208644304563,-9.14969153537005,0,29,12.0,11194.0,932.8333333333334,1,6,6,5
19287,Phd. Sharon Hartman,female,1990-01-03 04:17:00,1.0,0.0,0.0,4.0,6611.0,1541.0,19.0,398.0,461.0,361.0,677.0,644.0,391.0,402.0,576.0,0.1542083855787833,2011.0,,38.74159236311604,-9.177458583369685,0,33,10.0,11486.0,1148.6,3,6,6,5
19925,Phd. Sherri Moore,female,1990-07-29 01:26:00,0.0,0.0,0.0,3.0,6785.0,1007.0,19.0,415.0,398.0,409.0,740.0,667.0,114.0,427.0,467.0,0.1525465518102177,2004.0,,38.758621952159245,-9.09862989001063,0,33,17.0,10962.0,644.8235294117648,3,6,6,5
308,Msc. Mildred Crum,female,1990-11-01 09:07:00,0.0,0.0,0.0,3.0,7197.0,1179.0,20.0,417.0,414.0,367.0,731.0,729.0,87.0,587.0,526.0,0.1470770409574113,2013.0,948519.0,38.76150550412037,-9.09862989001063,0,33,8.0,11708.0,1463.5,2,6,6,5
20544,Bsc. Kevin Lewis,male,1991-12-27 07:16:00,0.0,0.0,0.0,4.0,7423.0,952.0,19.0,397.0,464.0,399.0,627.0,733.0,218.0,600.0,463.0,0.1399422037211536,2010.0,,38.75408271543422,-9.17853513478416,0,32,11.0,11813.0,1073.909090909091,1,6,6,5
11745,Msc. Kevin Dingler,male,1990-05-09 03:01:00,0.0,0.0,0.0,3.0,6497.0,1159.0,20.0,433.0,419.0,425.0,649.0,725.0,333.0,625.0,418.0,0.1432994069371485,2014.0,,38.72853589944043,-9.189919703236685,0,33,7.0,11265.0,1609.2857142857142,2,6,6,5
11483,Bsc. Charles Pere,male,1996-08-01 09:08:00,0.0,0.0,0.0,3.0,7131.0,1016.0,19.0,371.0,351.0,320.0,704.0,712.0,154.0,627.0,268.0,0.1454128291274507,2011.0,,38.75733664104459,-9.100787807615438,0,27,10.0,11386.0,1138.6,1,6,6,5
509,Msc. Kathi Ball,female,1997-04-14 08:57:00,0.0,0.0,0.0,2.0,7297.0,1039.0,20.0,383.0,400.0,313.0,703.0,614.0,229.0,565.0,492.0,0.1471528696745415,2008.0,973635.0,38.73414715828542,-9.149467642579069,0,26,13.0,11543.0,887.9230769230769,2,6,6,5
29154,Dennis Hansen,male,1995-11-03 09:36:00,0.0,0.0,0.0,3.0,6393.0,934.0,19.0,444.0,441.0,374.0,703.0,743.0,202.0,449.0,589.0,0.1577070973762095,2004.0,,38.73718774609908,-9.19756547470381,0,28,17.0,10683.0,628.4117647058823,0,6,6,5
29001,James Lyons,male,1997-09-12 02:18:00,0.0,0.0,0.0,3.0,6705.0,924.0,20.0,392.0,354.0,348.0,757.0,729.0,399.0,555.0,665.0,0.1459300754790028,2014.0,,38.73598937276089,-9.15134695140966,0,26,7.0,11163.0,1594.7142857142858,0,6,6,5
10440,Bsc. Ellen Rainey,female,1995-02-18 02:47:00,0.0,0.0,0.0,3.0,7045.0,1137.0,17.0,394.0,378.0,438.0,747.0,751.0,67.0,511.0,527.0,0.1449822673261655,2011.0,,38.7530397934153,-9.164715696380773,0,28,10.0,11468.0,1146.8,1,6,6,5
22178,Msc. David Leyrer,male,1993-02-09 12:10:00,0.0,0.0,0.0,4.0,7205.0,1149.0,20.0,381.0,480.0,387.0,625.0,702.0,134.0,477.0,542.0,0.1469328475600067,2011.0,,38.75843033445459,-9.091474815615106,0,30,10.0,11540.0,1154.0,2,6,6,5
17968,Bsc. David Howard,male,1993-04-17 11:03:00,0.0,0.0,0.0,3.0,6923.0,1399.0,21.0,329.0,348.0,430.0,662.0,692.0,169.0,560.0,520.0,0.1474619827582999,2010.0,,38.744530019265454,-9.154794857067374,0,30,11.0,11512.0,1046.5454545454545,1,6,6,5
13347,Phd. Gregory Reynolds,male,1996-12-30 04:48:00,0.0,0.0,0.0,2.0,7416.0,1090.0,18.0,439.0,371.0,361.0,740.0,706.0,193.0,695.0,458.0,0.1448275017366634,2011.0,,38.74554907844312,-9.159580477214664,0,27,10.0,12011.0,1201.1,3,6,6,5
8031,Msc. Jennifer Cruz,female,1995-05-27 07:50:00,0.0,0.0,0.0,4.0,7436.0,1048.0,19.0,439.0,425.0,471.0,664.0,684.0,348.0,518.0,471.0,0.1533006382402345,2012.0,,38.730551929841496,-9.185588333467589,0,28,9.0,12033.0,1337.0,2,6,6,5
15574,Msc. Kenneth Barnett,male,1992-10-13 07:47:00,1.0,0.0,0.0,3.0,6749.0,1204.0,19.0,397.0,325.0,454.0,728.0,756.0,217.0,553.0,568.0,0.1439141691472187,2002.0,,38.740742662686046,-9.174486867318624,0,31,19.0,11383.0,599.1052631578947,2,6,6,5
21176,Bsc. Opal Dibartolomeo,female,1993-03-22 12:59:00,0.0,0.0,0.0,4.0,7175.0,718.0,18.0,449.0,356.0,343.0,781.0,657.0,357.0,382.0,447.0,0.1486122087489223,2011.0,,38.75557732728389,-9.102824477064168,0,30,10.0,11218.0,1121.8,1,6,6,5
24703,Catherine Matherne,female,1997-09-19 12:26:00,0.0,0.0,0.0,3.0,6771.0,1334.0,20.0,319.0,409.0,480.0,785.0,805.0,57.0,568.0,484.0,0.1573753036681081,2015.0,,38.742700620010375,-9.15668597621346,0,26,6.0,11528.0,1921.3333333333333,0,6,6,5
19811,Phd. Roger Pierce,male,1997-08-18 05:51:00,1.0,0.0,0.0,3.0,8146.0,1019.0,19.0,465.0,454.0,424.0,774.0,750.0,213.0,685.0,410.0,0.1428040277685752,2011.0,,38.72817337963368,-9.143359866415496,0,26,10.0,12930.0,1293.0,3,6,6,5
29901,Rodney Gallagher,male,1996-04-29 04:06:00,0.0,0.0,0.0,3.0,6934.0,1137.0,19.0,338.0,398.0,405.0,736.0,672.0,231.0,588.0,457.0,0.1555999569776759,2010.0,,38.74446301998016,-9.166621549835902,0,27,11.0,11439.0,1039.909090909091,0,6,6,5
2681,Bsc. Summer Barrette,female,1992-04-30 12:30:00,0.0,0.0,0.0,3.0,6583.0,884.0,18.0,429.0,383.0,398.0,712.0,701.0,304.0,562.0,447.0,0.1531542774774958,2010.0,934811.0,38.74774265221684,-9.193299299776813,0,31,11.0,10956.0,996.0,1,6,6,5
13173,Phd. Antonio Humphrey,male,1990-04-16 03:53:00,0.0,0.0,0.0,2.0,6587.0,835.0,20.0,369.0,385.0,427.0,653.0,698.0,162.0,308.0,599.0,0.1534781789928233,2004.0,,38.75420449556968,-9.16534524932134,0,33,17.0,10424.0,613.1764705882352,3,6,6,5
1202,Phd. Jesus Oloughlin,male,1992-05-03 09:13:00,1.0,0.0,0.0,3.0,7511.0,1106.0,20.0,392.0,350.0,464.0,675.0,779.0,173.0,460.0,528.0,0.1444514031578337,2009.0,936754.0,38.75005964320289,-9.1711623855004,0,31,12.0,11910.0,992.5,3,6,6,5
16160,Bsc. Dominick Johnson,male,1993-04-26 10:50:00,0.0,0.0,0.0,3.0,6678.0,840.0,17.0,314.0,441.0,415.0,633.0,753.0,78.0,444.0,404.0,0.1532158855676965,2005.0,,38.74293192097039,-9.180421785267068,0,30,16.0,10596.0,662.25,1,6,6,5
25657,Brian Dunn,male,1997-09-27 03:20:00,1.0,0.0,0.0,3.0,6774.0,932.0,18.0,437.0,444.0,427.0,638.0,671.0,140.0,390.0,355.0,0.1479330809248472,2012.0,,38.74324725580754,-9.170028986665605,0,26,9.0,10853.0,1205.888888888889,0,6,6,5
27337,Wendy Smith,female,1991-09-23 01:24:00,1.0,0.0,0.0,3.0,7539.0,1086.0,19.0,484.0,393.0,408.0,733.0,736.0,441.0,569.0,437.0,0.1409712384496705,2004.0,,38.7595872363656,-9.167892563479851,0,32,17.0,12389.0,728.7647058823529,0,6,6,5
8833,Phd. Ronnie Sizemore,male,1995-01-21 04:02:00,0.0,0.0,1.0,3.0,6509.0,924.0,20.0,339.0,440.0,502.0,676.0,672.0,89.0,323.0,442.0,0.1506213397198336,2018.0,,38.76127136522256,-9.1596511969307,0,28,3.0,10474.0,3491.333333333333,3,6,6,5
14073,Phd. Irene Jordan,female,1995-04-24 02:09:00,0.0,0.0,0.0,3.0,7006.0,1221.0,20.0,410.0,381.0,472.0,723.0,658.0,99.0,623.0,325.0,0.1572886250137639,2014.0,,38.74690227318052,-9.205103133020378,0,28,7.0,11593.0,1656.142857142857,3,6,6,5
12844,Msc. Matthew Fields,male,1995-09-28 12:44:00,0.0,0.0,0.0,3.0,7251.0,754.0,18.0,445.0,407.0,360.0,709.0,686.0,239.0,481.0,482.0,0.1488431603379161,2013.0,,38.73038517986166,-9.187668525952754,0,28,8.0,11332.0,1416.5,2,6,6,5
11045,Bsc. Michael Mcglone,male,1994-05-31 01:22:00,0.0,0.0,0.0,3.0,6622.0,951.0,20.0,419.0,379.0,357.0,700.0,761.0,113.0,571.0,498.0,0.1469762693687679,2015.0,,38.76065283029715,-9.159886161582724,0,29,6.0,10873.0,1812.1666666666667,1,6,6,5
24471,Anthony Wang,male,1996-09-21 05:52:00,0.0,0.0,0.0,3.0,6347.0,946.0,19.0,449.0,370.0,424.0,715.0,778.0,166.0,466.0,698.0,0.1470061917832842,2009.0,,38.72884830962307,-9.153681914439035,0,27,12.0,10661.0,888.4166666666666,0,6,6,5
10883,Msc. Terrance Rogers,male,1997-07-29 11:45:00,0.0,0.0,0.0,3.0,6897.0,854.0,20.0,453.0,454.0,370.0,569.0,644.0,97.0,536.0,541.0,0.1448774971038551,2010.0,,38.76990411507633,-9.168127988784912,0,26,11.0,10874.0,988.5454545454544,2,6,6,5
5410,Phd. Daniel Brown,male,1997-11-14 12:42:00,1.0,0.0,0.0,4.0,6495.0,895.0,20.0,439.0,367.0,461.0,677.0,627.0,55.0,425.0,520.0,0.1466573453302598,2007.0,997871.0,38.75737675935956,-9.179397138951966,0,26,14.0,10441.0,745.7857142857143,3,6,6,5
12609,Msc. Doris Johnson,female,1996-06-05 02:56:00,0.0,0.0,0.0,2.0,6613.0,1085.0,19.0,426.0,415.0,445.0,719.0,560.0,280.0,603.0,524.0,0.1498126989340018,2011.0,,38.74454328718192,-9.170464552995792,0,27,10.0,11146.0,1114.6,2,6,6,5
